{"version": 0.6, "generator": "Overpass API 0.7.62.1 084b4234", "osm3s": {"timestamp_osm_base": "2024-09-28T15:52:41Z", "copyright": "The data included in this document is from www.openstreetmap.org. The data is made available under ODbL."}, "elements": [{"type": "node", "id": 7732035, "lat": 55.6996116, "lon": 12.4694716, "tags": {"highway": "bus_stop", "public_transport": "platform"}}, {"type": "node", "id": 12723457, "lat": 55.7149791, "lon": 12.5780189, "tags": {"bus": "yes", "highway": "bus_stop", "name": "Svanem\u00f8llen St., Sl\u00f8jfen", "public_transport": "stop_position"}}, {"type": "node", "id": 273219312, "lat": 55.6952637, "lon": 12.5283489, "tags": {"bench": "no", "bin": "yes", "bus": "yes", "highway": "bus_stop", "lit": "yes", "name": "Fuglebakken St.", "network": "Movia", "network:wikidata": "Q3359392", "public_transport": "platform", "shelter": "no", "tactile_paving": "no"}}, {"type": "node", "id": 283018988, "lat": 55.6978204, "lon": 12.5010714, "tags": {"bus": "yes", "highway": "bus_stop", "name": "Fuglsang All\u00e9", "network": "Movia", "network:wikidata": "Q3359392", "public_transport": "platform"}}, {"type": "node", "id": 283018989, "lat": 55.6959195, "lon": 12.5038005, "tags": {"bench": "yes", "bin": "yes", "bus": "yes", "highway": "bus_stop", "lit": "yes", "name": "Bellah\u00f8jvej", "network": "Movia", "network:wikidata": "Q3359392", "public_transport": "platform", "shelter": "yes", "tactile_paving": "no"}}, {"type": "node", "id": 283018990, "lat": 55.694286, "lon": 12.5105138, "tags": {"bench": "yes", "bin": "yes", "bus": "yes", "highway": "bus_stop", "lit": "yes", "name": "Hulg\u00e5rdsvej", "network": "Movia", "network:wikidata": "Q3359392", "network:wikipedia": "da:Movia", "public_transport": "platform", "shelter": "yes", "tactile_paving": "no"}}, {"type": "node", "id": 283019022, "lat": 55.6928231, "lon": 12.5134259, "tags": {"bench": "yes", "bin": "yes", "bus": "yes", "highway": "bus_stop", "lit": "yes", "name": "R\u00f8nneb\u00e6rvej", "network": "Movia", "network:wikidata": "Q3359392", "public_transport": "platform", "shelter": "yes", "tactile_paving": "yes"}}, {"type": "node", "id": 287507710, "lat": 55.689633, "lon": 12.5200123, "tags": {"bench": "no", "bin": "no", "bus": "yes", "highway": "bus_stop", "name": "C. F. Richs Vej", "network": "Movia", "network:wikidata": "Q3359392", "public_transport": "platform", "shelter": "no", "tactile_paving": "no"}}, {"type": "node", "id": 287507712, "lat": 55.6880503, "lon": 12.5269124, "tags": {"bench": "no", "bin": "yes", "bus": "yes", "highway": "bus_stop", "lit": "yes", "name": "Nordre Fasanvej", "network": "Movia", "network:wikidata": "Q3359392", "public_transport": "platform", "shelter": "no", "tactile_paving": "no"}}, {"type": "node", "id": 287508068, "lat": 55.6763696, "lon": 12.5674025, "tags": {"bench": "yes", "bin": "yes", "bus": "yes", "highway": "bus_stop", "lit": "yes", "name": "R\u00e5dhuspladsen St.", "network": "Movia", "network:wikidata": "Q3359392", "public_transport": "platform", "shelter": "yes", "tactile_paving": "yes"}}, {"type": "node", "id": 287508101, "lat": 55.6754755, "lon": 12.5623751, "tags": {"bench": "no", "bin": "yes", "bus": "yes", "highway": "bus_stop", "lit": "yes", "name": "Vesterport st.", "public_transport": "platform", "shelter": "no", "tactile_paving": "yes", "wheelchair": "yes"}}, {"type": "node", "id": 287508566, "lat": 55.6799024, "lon": 12.5482884, "tags": {"bus": "yes", "highway": "bus_stop", "name": "Thorvaldsensvej", "network": "Movia", "network:wikidata": "Q3359392", "public_transport": "stop_position"}}, {"type": "node", "id": 287508840, "lat": 55.6836868, "lon": 12.5366865, "tags": {"bench": "no", "bin": "no", "bus": "yes", "highway": "bus_stop", "lit": "yes", "name": "Helgesvej", "network": "Movia", "network:wikidata": "Q3359392", "public_transport": "platform", "shelter": "no", "tactile_paving": "yes"}}, {"type": "node", "id": 287508935, "lat": 55.6885649, "lon": 12.5423733, "tags": {"bench": "no", "bin": "no", "bus": "yes", "highway": "bus_stop", "lit": "yes", "name": "Nuuks Plads St.", "network": "Movia", "network:wikidata": "Q3359392", "public_transport": "platform", "shelter": "no", "tactile_paving": "yes", "wheelchair": "yes"}}, {"type": "node", "id": 287509564, "lat": 55.6843648, "lon": 12.5242817, "tags": {"highway": "bus_stop", "public_transport": "platform"}}, {"type": "node", "id": 287510456, "lat": 55.6728482, "lon": 12.5662702, "tags": {"bench": "no", "bin": "yes", "bus": "yes", "highway": "bus_stop", "lit": "yes", "name": "Hovedbaneg\u00e5rden, Tivoli (Bernstorffsgade)", "network": "Movia", "network:wikidata": "Q3359392", "network:wikipedia": "da:Movia", "public_transport": "platform", "ref": "10844", "shelter": "yes", "tactile_paving": "no"}}, {"type": "node", "id": 289725595, "lat": 55.682156, "lon": 12.5388341, "tags": {"bench": "yes", "bin": "yes", "bus": "yes", "highway": "bus_stop", "name": "Dr. Abildgaards All\u00e9", "network": "Movia", "network:wikidata": "Q3359392", "public_transport": "platform", "shelter": "yes"}}, {"type": "node", "id": 289783501, "lat": 55.6716248, "lon": 12.5180833, "tags": {"bench": "yes", "bin": "yes", "bus": "yes", "highway": "bus_stop", "lit": "yes", "name": "Roskildevej", "network": "Movia", "network:wikidata": "Q3359392", "public_transport": "platform", "shelter": "yes", "tactile_paving": "yes"}}, {"type": "node", "id": 290440334, "lat": 55.6772194, "lon": 12.5806058, "tags": {"bench": "yes", "bin": "yes", "highway": "bus_stop", "lit": "yes", "name": "Gammel Strand St., Christiansborg", "network": "Movia", "network:wikidata": "Q3359392", "shelter": "yes", "tactile_paving": "yes"}}, {"type": "node", "id": 297980336, "lat": 55.651179, "lon": 12.6207662, "tags": {"bench": "yes", "bin": "yes", "bus": "yes", "highway": "bus_stop", "lit": "yes", "name": "Persiensvej", "network": "Movia", "network:wikidata": "Q3359392", "public_transport": "platform", "shelter": "yes", "tactile_paving": "no"}}, {"type": "node", "id": 298078807, "lat": 55.6723947, "lon": 12.4933968, "tags": {"bench": "yes", "bin": "yes", "bus": "yes", "highway": "bus_stop", "lit": "yes", "name": "\u00c5lholm St. (Roskildevej)", "network": "Movia", "network:wikidata": "Q3359392", "public_transport": "platform", "shelter": "yes", "tactile_paving": "yes"}}, {"type": "node", "id": 298535593, "lat": 55.6845623, "lon": 12.554569, "tags": {"bench": "no", "bus": "yes", "highway": "bus_stop", "name": "Blagardsgade", "public_transport": "stop_position", "shelter": "no"}}, {"type": "node", "id": 305260441, "lat": 55.6352592, "lon": 12.5884869, "tags": {"bench": "no", "bin": "yes", "bus": "yes", "highway": "bus_stop", "name": "Kanadavej", "network": "Movia", "network:wikidata": "Q3359392", "network:wikipedia": "da:Movia", "public_transport": "platform", "shelter": "no", "wheelchair": "limited"}}, {"type": "node", "id": 307363194, "lat": 55.629768, "lon": 12.5794683, "tags": {"bench": "no", "bin": "yes", "bus": "yes", "highway": "bus_stop", "lit": "yes", "local_ref": "33", "name": "\u00d8restad St.", "public_transport": "platform", "shelter": "no", "tactile_paving": "yes"}}, {"type": "node", "id": 307363204, "lat": 55.6189528, "lon": 12.5749097, "tags": {"bench": "yes", "bin": "yes", "bus": "yes", "highway": "bus_stop", "lit": "yes", "name": "Vestamager St.", "network": "Movia", "network:wikidata": "Q3359392", "public_transport": "platform", "shelter": "yes", "tactile_paving": "no"}}, {"type": "node", "id": 307363223, "lat": 55.6180799, "lon": 12.5776816, "tags": {"bench": "yes", "bin": "no", "bus": "yes", "highway": "bus_stop", "name": "Foldbyvej", "network": "Movia", "network:wikidata": "Q3359392", "public_transport": "platform", "shelter": "yes"}}, {"type": "node", "id": 308728844, "lat": 55.6301139, "lon": 12.6019793, "tags": {"bench": "yes", "bin": "yes", "bus": "yes", "highway": "bus_stop", "lit": "yes", "name": "T\u00e5rnby st.", "public_transport": "platform", "shelter": "yes", "tactile_paving": "no", "wheelchair": "limited"}}, {"type": "node", "id": 324758331, "lat": 55.7179723, "lon": 12.4703247, "tags": {"bus": "yes", "highway": "bus_stop", "name": "N\u00f8rre Gymnasium", "public_transport": "platform"}}, {"type": "node", "id": 324758399, "lat": 55.7175393, "lon": 12.4699626, "tags": {"bus": "yes", "highway": "bus_stop", "name": "N\u00f8rre Gymnasium", "public_transport": "platform", "shelter": "yes"}}, {"type": "node", "id": 338791535, "lat": 55.6524846, "lon": 12.5174714, "tags": {"bench": "yes", "bin": "yes", "bus": "yes", "highway": "bus_stop", "lit": "yes", "name": "K\u00f8benhavn Syd st.", "network": "Movia", "network:wikidata": "Q3359392", "old_name": "Ny Ellebjerg st.", "public_transport": "platform", "shelter": "yes", "tactile_paving": "no"}}, {"type": "node", "id": 393190127, "lat": 55.6874884, "lon": 12.5617233, "tags": {"bus": "yes", "highway": "bus_stop", "name": "Ravnsborggade", "network": "Movia", "network:wikidata": "Q3359392", "public_transport": "stop_position"}}, {"type": "node", "id": 428832420, "lat": 55.7026442, "lon": 12.5612816, "tags": {"bus": "yes", "highway": "bus_stop", "public_transport": "platform", "wheelchair": "yes"}}, {"type": "node", "id": 428832425, "lat": 55.6960198, "lon": 12.5620664, "tags": {"bench": "yes", "bin": "yes", "highway": "bus_stop", "lit": "yes", "name": "N\u00f8rre Campus", "network": "Movia", "network:wikidata": "Q3359392", "shelter": "yes", "tactile_paving": "yes"}}, {"type": "node", "id": 431334965, "lat": 55.6835747, "lon": 12.5713958, "tags": {"bench": "no", "bin": "no", "bus": "yes", "highway": "bus_stop", "lit": "yes", "name": "N\u00f8rreport", "public_transport": "platform", "shelter": "yes", "tactile_paving": "yes"}}, {"type": "node", "id": 432621855, "lat": 55.7166787, "lon": 12.4884508, "tags": {"bus": "yes", "highway": "bus_stop", "name": "Terrasserne", "network": "Movia", "network:wikidata": "Q3359392", "public_transport": "platform"}}, {"type": "node", "id": 458366435, "lat": 55.6652417, "lon": 12.5580787, "tags": {"bench": "yes", "bin": "yes", "bus": "yes", "highway": "bus_stop", "lit": "yes", "name": "Dybb\u00f8lsbro Station", "network": "Movia", "network:wikidata": "Q3359392", "network:wikipedia": "da:Movia", "public_transport": "platform", "shelter": "yes", "tactile_paving": "no"}}, {"type": "node", "id": 458366437, "lat": 55.665462, "lon": 12.5591879, "tags": {"bench": "no", "bin": "no", "bus": "yes", "highway": "bus_stop", "lit": "yes", "name": "Dybb\u00f8lsbro Station", "network": "Movia", "network:wikidata": "Q3359392", "network:wikipedia": "da:Movia", "public_transport": "platform", "shelter": "no", "tactile_paving": "no"}}, {"type": "node", "id": 467774057, "lat": 55.6920658, "lon": 12.5693763, "tags": {"bus": "yes", "highway": "bus_stop", "name": "Sortedam dossering", "public_transport": "platform"}}, {"type": "node", "id": 494608151, "lat": 55.680734, "lon": 12.5725382, "tags": {"highway": "bus_stop", "name": "Fiolstr\u00e6de", "public_transport": "platform"}}, {"type": "node", "id": 546472054, "lat": 55.7042413, "lon": 12.4976482, "tags": {"bench": "no", "bin": "yes", "bus": "yes", "highway": "bus_stop", "name": "Br\u00f8nsh\u00f8j Torv", "network": "Movia", "network:wikidata": "Q3359392", "public_transport": "platform", "shelter": "no", "tactile_paving": "yes"}}, {"type": "node", "id": 552383313, "lat": 55.7056084, "lon": 12.4918343, "tags": {"bus": "yes", "highway": "bus_stop", "name": "Astrupvej", "network": "Movia", "network:wikidata": "Q3359392", "public_transport": "platform"}}, {"type": "node", "id": 552383391, "lat": 55.7051765, "lon": 12.493544, "tags": {"bus": "yes", "highway": "bus_stop", "name": "Astrupvej", "network": "Movia", "network:wikidata": "Q3359392", "public_transport": "platform"}}, {"type": "node", "id": 560792913, "lat": 55.7147829, "lon": 12.5768782, "tags": {"bench": "no", "bin": "yes", "bus": "yes", "highway": "bus_stop", "lit": "yes", "name": "\u00d8sterbrogade", "network": "Movia", "network:wikidata": "Q3359392", "network:wikipedia": "da:Movia", "passenger_information_display": "yes", "public_transport": "platform", "shelter": "no", "tactile_paving": "yes"}}, {"type": "node", "id": 589026668, "lat": 55.6804268, "lon": 12.4903211, "tags": {"bench": "no", "bin": "yes", "bus": "yes", "highway": "bus_stop", "name": "Langdraget", "network": "Movia", "network:wikidata": "Q3359392", "public_transport": "platform", "shelter": "no"}}, {"type": "node", "id": 589026671, "lat": 55.6842866, "lon": 12.4933165, "tags": {"bench": "no", "bin": "no", "bus": "yes", "highway": "bus_stop", "name": "Gr\u00f8ndals Parkvej", "network": "Movia", "network:wikidata": "Q3359392", "public_transport": "platform", "shelter": "no"}}, {"type": "node", "id": 589026672, "lat": 55.6842005, "lon": 12.4931073, "tags": {"bus": "yes", "highway": "bus_stop", "name": "Gr\u00f8ndals Parkvej", "network": "Movia", "network:wikidata": "Q3359392", "public_transport": "platform"}}, {"type": "node", "id": 589026675, "lat": 55.6840855, "lon": 12.494046, "tags": {"bench": "no", "bin": "yes", "bus": "yes", "highway": "bus_stop", "lit": "yes", "name": "Jernbane All\u00e9", "network": "Movia", "network:wikidata": "Q3359392", "public_transport": "platform", "shelter": "no", "tactile_paving": "yes"}}, {"type": "node", "id": 595782478, "lat": 55.6792539, "lon": 12.5666296, "tags": {"highway": "bus_stop", "name": "Jarmers Plads", "public_transport": "platform"}}, {"type": "node", "id": 595782481, "lat": 55.6837634, "lon": 12.572042, "tags": {"bench": "no", "bin": "yes", "bus": "yes", "highway": "bus_stop", "lit": "yes", "name": "N\u00f8rreport St.", "network": "Movia", "network:wikidata": "Q3359392", "public_transport": "platform", "shelter": "no", "tactile_paving": "yes"}}, {"type": "node", "id": 617285051, "lat": 55.7062051, "lon": 12.5773627, "tags": {"bus": "yes", "highway": "bus_stop", "name": "\u00c5rhusgade", "public_transport": "stop_position", "wheelchair": "yes"}}, {"type": "node", "id": 644025384, "lat": 55.7094433, "lon": 12.5612077, "tags": {"bench": "yes", "bin": "yes", "bus": "yes", "check_date:shelter": "2024-07-30", "departures_board": "realtime", "highway": "bus_stop", "lit": "yes", "name": "Haraldsgade", "network": "Movia", "network:wikidata": "Q3359392", "public_transport": "platform", "shelter": "yes", "tactile_paving": "yes"}}, {"type": "node", "id": 644025411, "lat": 55.7149262, "lon": 12.5581078, "tags": {"bench": "yes", "bin": "yes", "bus": "yes", "highway": "bus_stop", "lit": "yes", "name": "Ryparken St.", "network": "Movia", "network:wikidata": "Q3359392", "public_transport": "platform", "shelter": "yes", "tactile_paving": "yes"}}, {"type": "node", "id": 644025421, "lat": 55.7268175, "lon": 12.5509517, "tags": {"bench": "yes", "bin": "yes", "highway": "bus_stop", "name": "Tuborgvej", "public_transport": "platform", "shelter": "yes", "tactile_paving": "yes"}}, {"type": "node", "id": 644039782, "lat": 55.7057046, "lon": 12.5627216, "tags": {"bench": "yes", "bin": "yes", "bus": "yes", "highway": "bus_stop", "lit": "yes", "name": "Vibenhus Runddel St.", "network": "Movia", "network:wikidata": "Q3359392", "public_transport": "platform", "shelter": "yes", "tactile_paving": "yes"}}, {"type": "node", "id": 644039817, "lat": 55.7281669, "lon": 12.5505002, "tags": {"bench": "yes", "bin": "yes", "bus": "yes", "highway": "bus_stop", "name": "Tuborgvej", "network": "Movia", "network:wikidata": "Q3359392", "public_transport": "platform", "shelter": "yes"}}, {"type": "node", "id": 664257007, "lat": 55.6940448, "lon": 12.5493622, "tags": {"bench": "yes", "bin": "yes", "bus": "yes", "highway": "bus_stop", "lit": "yes", "name": "N\u00f8rrebros Runddel St.", "network": "Movia", "network:wikidata": "Q3359392", "public_transport": "platform", "shelter": "yes", "tactile_paving": "yes"}}, {"type": "node", "id": 674795510, "lat": 55.6674378, "lon": 12.5471777, "tags": {"bench": "yes", "bin": "yes", "bus": "yes", "covered": "yes", "highway": "bus_stop", "lit": "yes", "name": "Enghave Plads St. (Flensborggade)", "network": "Movia", "network:wikidata": "Q3359392", "public_transport": "platform", "shelter": "yes", "tactile_paving": "yes"}}, {"type": "node", "id": 677512802, "lat": 55.6595495, "lon": 12.5723537, "tags": {"bus": "yes", "highway": "bus_stop", "name": "Axel Heides Gade", "network": "Movia", "network:wikidata": "Q3359392", "network:wikipedia": "da:Movia", "public_transport": "platform"}}, {"type": "node", "id": 677513055, "lat": 55.6593032, "lon": 12.571812, "tags": {"bus": "yes", "highway": "bus_stop", "name": "Axel Heides Gade", "network": "Movia", "network:wikidata": "Q3359392", "network:wikipedia": "da:Movia", "public_transport": "platform"}}, {"type": "node", "id": 677516050, "lat": 55.6543287, "lon": 12.5686047, "tags": {"bus": "yes", "highway": "bus_stop", "name": "Rundholtsvej", "network": "Movia", "network:wikidata": "Q3359392", "public_transport": "platform"}}, {"type": "node", "id": 698835638, "lat": 55.6723335, "lon": 12.5668818, "tags": {"bench": "no", "bin": "yes", "bus": "yes", "highway": "bus_stop", "lit": "yes", "name": "Hovedbaneg\u00e5rden, Tivoli (Bernstorffsgade)", "network": "Movia", "network:wikidata": "Q3359392", "network:wikipedia": "da:Movia", "public_transport": "platform", "ref": "10843", "shelter": "yes", "tactile_paving": "yes"}}, {"type": "node", "id": 760668563, "lat": 55.6722328, "lon": 12.4892987, "tags": {"bus": "yes", "highway": "bus_stop", "name": "\u00c5lholm Plads", "public_transport": "platform"}}, {"type": "node", "id": 760694453, "lat": 55.6633951, "lon": 12.5419419, "tags": {"bench": "yes", "bin": "yes", "bus": "yes", "highway": "bus_stop", "lit": "yes", "name": "Enghave st.", "public_transport": "platform", "shelter": "yes", "tactile_paving": "yes"}}, {"type": "node", "id": 761283185, "lat": 55.6631373, "lon": 12.5931667, "tags": {"bench": "yes", "bin": "yes", "bus": "yes", "highway": "bus_stop", "lit": "yes", "name": "Amagerf\u00e6lled Skole", "network": "Movia", "network:wikidata": "Q3359392", "network:wikipedia": "da:Movia", "public_transport": "platform", "shelter": "yes", "tactile_paving": "yes"}}, {"type": "node", "id": 761283192, "lat": 55.6624902, "lon": 12.5937517, "tags": {"bench": "yes", "bin": "yes", "bus": "yes", "highway": "bus_stop", "lit": "yes", "name": "Amagerf\u00e6lled Skole", "network": "Movia", "network:wikidata": "Q3359392", "network:wikipedia": "da:Movia", "public_transport": "platform", "shelter": "yes", "tactile_paving": "yes"}}, {"type": "node", "id": 761283199, "lat": 55.6583748, "lon": 12.5924483, "tags": {"bench": "yes", "bin": "yes", "bus": "yes", "highway": "bus_stop", "lit": "yes", "name": "H\u00f8rg\u00e5rden", "network": "Movia", "network:wikidata": "Q3359392", "network:wikipedia": "da:Movia", "public_transport": "platform", "shelter": "yes", "tactile_paving": "yes"}}, {"type": "node", "id": 766827894, "lat": 55.6834368, "lon": 12.4928874, "tags": {"bench": "no", "bin": "yes", "bus": "yes", "highway": "bus_stop", "lit": "no", "name": "Jernbane All\u00e9", "network": "Movia", "network:wikidata": "Q3359392", "public_transport": "platform", "shelter": "no", "tactile_paving": "no"}}, {"type": "node", "id": 767961244, "lat": 55.682217, "lon": 12.533339, "tags": {"highway": "bus_stop", "public_transport": "platform"}}, {"type": "node", "id": 772496868, "lat": 55.6411773, "lon": 12.5749372, "tags": {"bench": "yes", "bin": "yes", "bus": "yes", "highway": "bus_stop", "name": "Vandrerhjem", "network": "Movia", "network:wikidata": "Q3359392", "network:wikipedia": "da:Movia", "public_transport": "platform", "shelter": "yes"}}, {"type": "node", "id": 772497653, "lat": 55.6408, "lon": 12.5767458, "tags": {"bus": "yes", "highway": "bus_stop", "name": "Vejlands All\u00e9", "public_transport": "platform", "shelter": "no"}}, {"type": "node", "id": 775584367, "lat": 55.6465533, "lon": 12.6143329, "tags": {"bench": "yes", "bin": "yes", "bus": "yes", "highway": "bus_stop", "lit": "yes", "name": "Sundbyvester Plads", "network": "Movia", "network:wikidata": "Q3359392", "public_transport": "platform", "shelter": "yes", "tactile_paving": "yes"}}, {"type": "node", "id": 796786764, "lat": 55.6408145, "lon": 12.6333036, "tags": {"highway": "bus_stop", "name": "Hyben All\u00e9", "public_transport": "platform"}}, {"type": "node", "id": 797852690, "lat": 55.6538755, "lon": 12.6189203, "tags": {"bus": "yes", "highway": "bus_stop", "name": "Amager Hospital", "network": "Movia", "network:wikidata": "Q3359392", "public_transport": "platform"}}, {"type": "node", "id": 826550198, "lat": 55.6730632, "lon": 12.5716273, "tags": {"bench": "yes", "bin": "yes", "bus": "yes", "highway": "bus_stop", "lit": "yes", "name": "Glyptoteket", "network": "Movia", "network:wikidata": "Q3359392", "network:wikipedia": "da:Movia", "public_transport": "platform", "shelter": "yes", "tactile_paving": "no"}}, {"type": "node", "id": 826550783, "lat": 55.6731313, "lon": 12.5714648, "tags": {"bench": "yes", "bin": "yes", "bus": "yes", "highway": "bus_stop", "lit": "yes", "name": "Glyptoteket", "network": "Movia", "network:wikidata": "Q3359392", "network:wikipedia": "da:Movia", "public_transport": "platform", "shelter": "yes", "tactile_paving": "no"}}, {"type": "node", "id": 870316309, "lat": 55.6663732, "lon": 12.5790102, "tags": {"bench": "no", "bin": "no", "bus": "yes", "highway": "bus_stop", "lit": "no", "name": "Isafjordsgade", "network": "Movia", "network:wikidata": "Q3359392", "network:wikipedia": "da:Movia", "public_transport": "platform", "shelter": "no", "tactile_paving": "yes"}}, {"type": "node", "id": 870345756, "lat": 55.6665441, "lon": 12.5788619, "tags": {"bench": "yes", "bin": "yes", "bus": "yes", "highway": "bus_stop", "lit": "no", "name": "Isafjordsgade", "network": "Movia", "network:wikidata": "Q3359392", "network:wikipedia": "da:Movia", "public_transport": "platform", "shelter": "yes", "tactile_paving": "no"}}, {"type": "node", "id": 870375505, "lat": 55.6690442, "lon": 12.5814524, "tags": {"bus": "yes", "highway": "bus_stop", "name": "Klaksvigsgade", "network": "Movia", "network:wikidata": "Q3359392", "network:wikipedia": "da:Movia", "public_transport": "stop_position"}}, {"type": "node", "id": 870377894, "lat": 55.6691884, "lon": 12.5797453, "tags": {"bench": "no", "bin": "no", "bus": "yes", "highway": "bus_stop", "name": "Langebro", "public_transport": "platform", "shelter": "no"}}, {"type": "node", "id": 870394471, "lat": 55.6690343, "lon": 12.57376, "tags": {"bench": "no", "bin": "yes", "bus": "yes", "highway": "bus_stop", "lit": "no", "name": "Mitchellsgade", "public_transport": "platform", "shelter": "no", "tactile_paving": "no"}}, {"type": "node", "id": 870408259, "lat": 55.6697887, "lon": 12.5705615, "tags": {"bench": "yes", "bin": "yes", "bus": "yes", "highway": "bus_stop", "lit": "no", "name": "Polititorvet", "network": "Movia", "network:wikidata": "Q3359392", "network:wikipedia": "da:Movia", "public_transport": "platform", "shelter": "yes", "tactile_paving": "no"}}, {"type": "node", "id": 870408397, "lat": 55.6698007, "lon": 12.5710043, "tags": {"bench": "no", "bin": "no", "bus": "yes", "highway": "bus_stop", "lit": "no", "name": "Polititorvet", "network": "Movia", "network:wikidata": "Q3359392", "network:wikipedia": "da:Movia", "public_transport": "platform", "shelter": "no", "tactile_paving": "no"}}, {"type": "node", "id": 870408870, "lat": 55.669273, "lon": 12.5704325, "tags": {"bench": "no", "bin": "no", "bus": "yes", "highway": "bus_stop", "name": "Polititorvet", "network": "Movia", "network:wikidata": "Q3359392", "network:wikipedia": "da:Movia", "public_transport": "platform", "shelter": "yes"}}, {"type": "node", "id": 888297655, "lat": 55.6705615, "lon": 12.5580621, "tags": {"bench": "no", "bin": "yes", "bus": "yes", "highway": "bus_stop", "lit": "yes", "name": "Gasv\u00e6rksvej", "network": "Movia", "network:wikidata": "Q3359392", "public_transport": "platform", "shelter": "no", "tactile_paving": "yes"}}, {"type": "node", "id": 888298339, "lat": 55.6702696, "lon": 12.5567856, "tags": {"bench": "yes", "bin": "yes", "bus": "yes", "highway": "bus_stop", "lit": "yes", "name": "Gasv\u00e6rksvej", "network": "Movia", "network:wikidata": "Q3359392", "public_transport": "platform", "shelter": "no", "tactile_paving": "yes"}}, {"type": "node", "id": 893936727, "lat": 55.6687311, "lon": 12.5519179, "tags": {"bench": "no", "bin": "yes", "bus": "yes", "highway": "bus_stop", "lit": "yes", "name": "Saxogade", "network": "Movia", "network:wikidata": "Q3359392", "public_transport": "platform", "shelter": "no", "tactile_paving": "yes"}}, {"type": "node", "id": 893936794, "lat": 55.6687606, "lon": 12.5517447, "tags": {"bench": "no", "bin": "yes", "bus": "yes", "highway": "bus_stop", "lit": "yes", "name": "Saxogade", "network": "Movia", "network:wikidata": "Q3359392", "public_transport": "platform", "shelter": "no", "tactile_paving": "yes"}}, {"type": "node", "id": 893938437, "lat": 55.6726255, "lon": 12.5508862, "tags": {"bench": "no", "bin": "yes", "bus": "yes", "highway": "bus_stop", "lit": "no", "name": "Frederiksberg All\u00e9 (Vesterbrogade)", "network": "Movia", "network:wikidata": "Q3359392", "public_transport": "platform", "shelter": "no", "tactile_paving": "yes", "wheelchair": "yes"}}, {"type": "node", "id": 893953114, "lat": 55.6732399, "lon": 12.5604193, "tags": {"bench": "no", "bin": "yes", "bus": "yes", "highway": "bus_stop", "lit": "yes", "name": "Trommesalen (Vesterbrogade)", "network": "Movia", "network:wikidata": "Q3359392", "public_transport": "platform", "shelter": "no", "tactile_paving": "yes"}}, {"type": "node", "id": 893955170, "lat": 55.6738188, "lon": 12.5619093, "tags": {"bench": "yes", "bin": "yes", "bus": "yes", "highway": "bus_stop", "lit": "yes", "name": "Hovedbaneg\u00e5rden, Frihedsst\u00f8tten", "network": "Movia", "network:wikidata": "Q3359392", "public_transport": "platform", "shelter": "yes", "tactile_paving": "no"}}, {"type": "node", "id": 893959059, "lat": 55.6745732, "lon": 12.5637259, "tags": {"bench": "no", "bin": "yes", "bus": "yes", "highway": "bus_stop", "lit": "yes", "name": "Sightseeingbus", "public_transport": "platform", "shelter": "no", "tactile_paving": "no", "wheelchair": "yes"}}, {"type": "node", "id": 893959838, "lat": 55.6758736, "lon": 12.563631, "tags": {"bench": "no", "bin": "no", "highway": "bus_stop", "name": "Vesterport st.", "public_transport": "platform", "shelter": "no", "wheelchair": "yes"}}, {"type": "node", "id": 893961294, "lat": 55.6771934, "lon": 12.5665889, "tags": {"bench": "yes", "bin": "yes", "bus": "yes", "highway": "bus_stop", "lit": "yes", "name": "R\u00e5dhuspladsen St.", "network": "Movia", "network:wikidata": "Q3359392", "public_transport": "platform", "shelter": "yes", "tactile_paving": "no"}}, {"type": "node", "id": 893961425, "lat": 55.67726, "lon": 12.5666698, "tags": {"bench": "yes", "bin": "yes", "bus": "yes", "highway": "bus_stop", "lit": "yes", "name": "R\u00e5dhuspladsen", "public_transport": "platform", "shelter": "yes", "tactile_paving": "yes"}}, {"type": "node", "id": 893961495, "lat": 55.6770564, "lon": 12.5668833, "tags": {"bench": "yes", "bin": "yes", "bus": "yes", "highway": "bus_stop", "lit": "yes", "name": "R\u00e5dhuspladsen", "public_transport": "platform", "shelter": "yes", "tactile_paving": "yes"}}, {"type": "node", "id": 893966917, "lat": 55.6753037, "lon": 12.5713846, "tags": {"bench": "no", "bin": "no", "bus": "yes", "highway": "bus_stop", "lit": "yes", "name": "L\u00f8ngangstr\u00e6de", "public_transport": "platform", "shelter": "no", "tactile_paving": "no"}}, {"type": "node", "id": 893998522, "lat": 55.6785329, "lon": 12.5800522, "tags": {"highway": "bus_stop", "public_transport": "platform"}}, {"type": "node", "id": 894014597, "lat": 55.6759164, "lon": 12.5762344, "tags": {"bench": "yes", "bin": "yes", "bus": "yes", "highway": "bus_stop", "lit": "yes", "name": "Stormbroen, Nationalmuseet", "network": "Movia", "network:wikidata": "Q3359392", "public_transport": "platform", "shelter": "yes", "tactile_paving": "no"}}, {"type": "node", "id": 894224575, "lat": 55.6792703, "lon": 12.591143, "tags": {"bench": "no", "bin": "yes", "bus": "yes", "highway": "bus_stop", "lit": "yes", "name": "Nyhavn", "public_transport": "platform", "shelter": "no", "tactile_paving": "no"}}, {"type": "node", "id": 894229676, "lat": 55.6792243, "lon": 12.590908, "tags": {"bench": "no", "bin": "yes", "bus": "yes", "highway": "bus_stop", "lit": "no", "name": "Nyhavnsbroen", "public_transport": "platform", "shelter": "no", "tactile_paving": "no"}}, {"type": "node", "id": 894312630, "lat": 55.6861089, "lon": 12.5918529, "tags": {"bench": "no", "highway": "bus_stop", "name": "Fredericiagade", "public_transport": "platform", "shelter": "no"}}, {"type": "node", "id": 894331417, "lat": 55.6879433, "lon": 12.5928055, "tags": {"bench": "yes", "bin": "yes", "highway": "bus_stop", "lit": "yes", "name": "Esplanaden", "public_transport": "platform", "shelter": "no", "tactile_paving": "no"}}, {"type": "node", "id": 894707157, "lat": 55.675886, "lon": 12.5766274, "tags": {"bench": "yes", "bin": "yes", "bus": "yes", "highway": "bus_stop", "lit": "yes", "name": "Stormbroen, Nationalmuseet", "network": "Movia", "network:wikidata": "Q3359392", "public_transport": "platform", "shelter": "yes", "tactile_paving": "no"}}, {"type": "node", "id": 895759978, "lat": 55.6741269, "lon": 12.5636067, "tags": {"bench": "yes", "bin": "yes", "bus": "yes", "highway": "bus_stop", "lit": "yes", "name": "Hovedbaneg\u00e5rden, Frihedsst\u00f8tten", "network": "Movia", "network:wikidata": "Q3359392", "network:wikipedia": "da:Movia", "public_transport": "platform", "shelter": "yes", "wheelchair": "yes"}}, {"type": "node", "id": 895778463, "lat": 55.6754983, "lon": 12.5669352, "tags": {"bench": "yes", "bin": "yes", "bus": "yes", "highway": "bus_stop", "lit": "yes", "name": "R\u00e5dhuspladsen St. (Vesterbrogade)", "network": "Movia", "network:wikidata": "Q3359392", "public_transport": "platform", "ref": "47229", "shelter": "yes", "tactile_paving": "yes", "wheelchair": "yes"}}, {"type": "node", "id": 898908117, "lat": 55.683156, "lon": 12.5866807, "tags": {"bench": "no", "bin": "yes", "bus": "yes", "highway": "bus_stop", "lit": "no", "name": "Dronningens Tv\u00e6rgade", "network": "Movia", "network:wikidata": "Q3359392", "public_transport": "platform", "shelter": "no", "tactile_paving": "no"}}, {"type": "node", "id": 923474765, "lat": 55.7292582, "lon": 12.5762851, "tags": {"bus": "yes", "highway": "bus_stop", "name": "Callisensvej", "network": "Movia", "network:wikidata": "Q3359392", "public_transport": "platform"}}, {"type": "node", "id": 976743440, "lat": 55.7095234, "lon": 12.561304, "tags": {"bench": "yes", "bin": "yes", "bus": "yes", "departures_board": "realtime", "highway": "bus_stop", "lit": "yes", "name": "Haraldsgade", "network": "Movia", "network:wikidata": "Q3359392", "public_transport": "platform", "shelter": "yes", "tactile_paving": "yes"}}, {"type": "node", "id": 977278845, "lat": 55.66236, "lon": 12.5953489, "tags": {"bench": "yes", "bin": "yes", "bus": "yes", "highway": "bus_stop", "lit": "yes", "name": "Amagerf\u00e6lled Skole", "network": "Movia", "network:wikidata": "Q3359392", "network:wikipedia": "da:Movia", "public_transport": "platform", "shelter": "yes", "tactile_paving": "yes"}}, {"type": "node", "id": 977310122, "lat": 55.7099136, "lon": 12.5603356, "tags": {"bench": "yes", "bin": "yes", "bus": "yes", "highway": "bus_stop", "lit": "yes", "name": "Lyngbyvej", "network": "Movia", "network:wikidata": "Q3359392", "public_transport": "platform", "shelter": "yes", "tactile_paving": "yes"}}, {"type": "node", "id": 977310385, "lat": 55.7099583, "lon": 12.5616329, "tags": {"bench": "yes", "bin": "yes", "bus": "yes", "check_date:shelter": "2023-10-29", "highway": "bus_stop", "lit": "yes", "name": "Lyngbyvej", "network": "Movia", "network:wikidata": "Q3359392", "public_transport": "platform", "shelter": "yes", "tactile_paving": "yes"}}, {"type": "node", "id": 977310900, "lat": 55.7083759, "lon": 12.5571913, "tags": {"bench": "yes", "bin": "yes", "bus": "yes", "highway": "bus_stop", "lit": "yes", "name": "Lers\u00f8 Parkall\u00e9", "network": "Movia", "network:wikidata": "Q3359392", "public_transport": "platform", "shelter": "yes", "tactile_paving": "yes"}}, {"type": "node", "id": 977310901, "lat": 55.7080619, "lon": 12.5570732, "tags": {"bench": "yes", "bin": "yes", "bus": "yes", "highway": "bus_stop", "name": "Lers\u00f8 Parkall\u00e9", "network": "Movia", "network:wikidata": "Q3359392", "public_transport": "platform", "shelter": "yes"}}, {"type": "node", "id": 977314690, "lat": 55.7125776, "lon": 12.559641, "tags": {"bench": "yes", "bin": "yes", "bus": "yes", "departures_board": "realtime", "highway": "bus_stop", "lit": "yes", "name": "Hans Knudsens Plads", "network": "Movia", "network:wikidata": "Q3359392", "public_transport": "platform", "ref": "1406", "shelter": "yes", "tactile_paving": "yes"}}, {"type": "node", "id": 977314691, "lat": 55.7129311, "lon": 12.5600077, "tags": {"bench": "yes", "bin": "no", "bus": "yes", "departures_board": "realtime", "highway": "bus_stop", "lit": "yes", "name": "Hans Knudsens Plads", "network": "Movia", "network:wikidata": "Q3359392", "public_transport": "platform", "ref": "1369", "shelter": "yes", "tactile_paving": "yes"}}, {"type": "node", "id": 985920109, "lat": 55.6866033, "lon": 12.5331351, "tags": {"bench": "yes", "bus": "yes", "highway": "bus_stop", "name": "Aksel M\u00f8llers Have St.", "network": "Movia", "network:wikidata": "Q3359392", "public_transport": "platform", "shelter": "no"}}, {"type": "node", "id": 993950135, "lat": 55.67099, "lon": 12.5684144, "tags": {"bench": "no", "bin": "no", "bus": "yes", "highway": "bus_stop", "name": "Tietgensgade (Bernstorffsgade)", "public_transport": "platform", "ref": "1298", "shelter": "no"}}, {"type": "node", "id": 993950151, "lat": 55.6712637, "lon": 12.5667175, "tags": {"bench": "yes", "bin": "yes", "bus": "yes", "highway": "bus_stop", "lit": "yes", "name": "Hovedbaneg\u00e5rden (Tietgensgade)", "network": "Movia", "network:wikidata": "Q3359392", "public_transport": "platform", "ref": "7051", "shelter": "yes", "tactile_paving": "no"}}, {"type": "node", "id": 1001175503, "lat": 55.6816978, "lon": 12.5116867, "tags": {"bench": "yes", "bin": "yes", "highway": "bus_stop", "lit": "yes", "name": "Dalgas Boulevard", "public_transport": "platform", "shelter": "yes", "tactile_paving": "yes"}}, {"type": "node", "id": 1001175721, "lat": 55.6819277, "lon": 12.5105792, "tags": {"highway": "bus_stop", "name": "Dalgas Boulevard", "public_transport": "platform"}}, {"type": "node", "id": 1001175778, "lat": 55.6821047, "lon": 12.5066355, "tags": {"bench": "no", "bin": "yes", "highway": "bus_stop", "lit": "no", "name": "Solbjerg Have", "public_transport": "platform", "shelter": "no", "tactile_paving": "no"}}, {"type": "node", "id": 1001175845, "lat": 55.6819112, "lon": 12.5073972, "tags": {"bench": "no", "bin": "yes", "highway": "bus_stop", "lit": "yes", "name": "Solbjerg Have", "public_transport": "platform", "shelter": "no", "tactile_paving": "yes"}}, {"type": "node", "id": 1001175895, "lat": 55.6822257, "lon": 12.5025022, "tags": {"bench": "no", "bin": "yes", "highway": "bus_stop", "lit": "yes", "name": "Flintholm All\u00e9", "public_transport": "platform", "shelter": "no", "tactile_paving": "yes"}}, {"type": "node", "id": 1001176399, "lat": 55.682383, "lon": 12.5017646, "tags": {"bench": "yes", "bin": "yes", "highway": "bus_stop", "lit": "yes", "name": "Flintholm All\u00e9", "public_transport": "platform", "shelter": "yes", "tactile_paving": "yes"}}, {"type": "node", "id": 1001177558, "lat": 55.6825644, "lon": 12.4960998, "tags": {"bench": "no", "bin": "yes", "highway": "bus_stop", "lit": "yes", "name": "S\u00f8nderjyllands All\u00e9", "public_transport": "platform", "shelter": "no", "tactile_paving": "yes"}}, {"type": "node", "id": 1001178065, "lat": 55.6827157, "lon": 12.4959281, "tags": {"bench": "no", "bin": "no", "highway": "bus_stop", "lit": "yes", "name": "S\u00f8nderjyllands All\u00e9", "public_transport": "platform", "shelter": "no", "tactile_paving": "no"}}, {"type": "node", "id": 1001179941, "lat": 55.6807235, "lon": 12.5214421, "tags": {"highway": "bus_stop", "public_transport": "platform"}}, {"type": "node", "id": 1001180363, "lat": 55.6809525, "lon": 12.5209506, "tags": {"bus": "yes", "highway": "bus_stop", "name": "Nordre Fasanvej", "network": "Movia", "network:wikidata": "Q3359392", "public_transport": "platform"}}, {"type": "node", "id": 1002401949, "lat": 55.6787497, "lon": 12.5044546, "tags": {"bench": "yes", "bin": "yes", "bus": "yes", "highway": "bus_stop", "lit": "no", "local_ref": "9A og 72", "name": "Peter Bangs Vej St.", "network": "Movia", "network:wikidata": "Q3359392", "public_transport": "platform", "shelter": "no", "tactile_paving": "yes"}}, {"type": "node", "id": 1002402033, "lat": 55.6785778, "lon": 12.504284, "tags": {"bus": "yes", "highway": "bus_stop", "local_ref": "9A og 72", "name": "Peter Bangs Vej St.", "network": "Movia", "network:wikidata": "Q3359392", "public_transport": "platform"}}, {"type": "node", "id": 1002402383, "lat": 55.6788694, "lon": 12.508257, "tags": {"bench": "no", "bin": "yes", "bus": "yes", "highway": "bus_stop", "lit": "yes", "name": "Dalgas Boulevard", "network": "Movia", "network:wikidata": "Q3359392", "public_transport": "platform", "shelter": "no", "tactile_paving": "yes"}}, {"type": "node", "id": 1002402440, "lat": 55.6788056, "lon": 12.5101997, "tags": {"bus": "yes", "highway": "bus_stop", "name": "Dalgas Boulevard", "network": "Movia", "network:wikidata": "Q3359392", "public_transport": "platform", "shelter": "yes"}}, {"type": "node", "id": 1002402889, "lat": 55.6784804, "lon": 12.4978425, "tags": {"highway": "bus_stop", "name": "S\u00f8nderjyllands All\u00e9", "public_transport": "platform", "shelter": "no"}}, {"type": "node", "id": 1002403076, "lat": 55.6784197, "lon": 12.4991042, "tags": {"bench": "no", "bin": "yes", "bus": "yes", "highway": "bus_stop", "lit": "yes", "name": "S\u00f8nderjyllands All\u00e9", "network": "Movia", "network:wikidata": "Q3359392", "public_transport": "platform", "shelter": "no", "tactile_paving": "yes"}}, {"type": "node", "id": 1003096191, "lat": 55.7071685, "lon": 12.5861681, "tags": {"bench": "no", "bin": "yes", "bus": "yes", "highway": "bus_stop", "lit": "no", "name": "\u00c5rhusgade", "network": "Movia", "network:wikidata": "Q3359392", "network:wikipedia": "da:Movia", "public_transport": "platform", "shelter": "no", "tactile_paving": "no"}}, {"type": "node", "id": 1051217431, "lat": 55.665161, "lon": 12.5581198, "tags": {"bus": "yes", "highway": "bus_stop", "name": "Dybb\u00f8lsbro Station", "network": "Movia", "network:wikidata": "Q3359392", "network:wikipedia": "da:Movia", "public_transport": "stop_position"}}, {"type": "node", "id": 1052708322, "lat": 55.643445, "lon": 12.5456655, "tags": {"bus": "yes", "highway": "bus_stop", "public_transport": "stop_position"}}, {"type": "node", "id": 1065991533, "lat": 55.6209217, "lon": 12.5855909, "tags": {"bench": "yes", "bin": "yes", "bus": "yes", "highway": "bus_stop", "name": "Kongelundsvej", "network": "Movia", "network:wikidata": "Q3359392", "network:wikipedia": "da:Movia", "public_transport": "platform", "shelter": "yes"}}, {"type": "node", "id": 1110968253, "lat": 55.678562, "lon": 12.532742, "tags": {"bench": "yes", "bin": "yes", "bus": "yes", "highway": "bus_stop", "lit": "yes", "name": "Frederiksberg R\u00e5dhus", "network": "Movia", "network:wikidata": "Q3359392", "public_transport": "platform", "shelter": "yes", "tactile_paving": "no", "wheelchair": "yes"}}, {"type": "node", "id": 1110968256, "lat": 55.677892, "lon": 12.5333817, "tags": {"bench": "yes", "bin": "yes", "bus": "yes", "highway": "bus_stop", "lit": "yes", "name": "Frederiksberg R\u00e5dhus", "network": "Movia", "network:wikidata": "Q3359392", "public_transport": "platform", "shelter": "yes", "tactile_paving": "yes", "wheelchair": "yes"}}, {"type": "node", "id": 1110968260, "lat": 55.6779729, "lon": 12.5329981, "tags": {"bench": "yes", "bin": "yes", "bus": "yes", "highway": "bus_stop", "name": "Frederiksberg R\u00e5dhus", "network": "Movia", "network:wikidata": "Q3359392", "public_transport": "platform", "shelter": "yes", "wheelchair": "yes"}}, {"type": "node", "id": 1110968263, "lat": 55.6812877, "lon": 12.5341485, "tags": {"bench": "yes", "bin": "yes", "bus": "yes", "highway": "bus_stop", "lit": "yes", "name": "Frederiksberg St.", "network": "Movia", "network:wikidata": "Q3359392", "public_transport": "platform", "shelter": "yes", "tactile_paving": "yes", "wheelchair": "yes"}}, {"type": "node", "id": 1110968264, "lat": 55.6814208, "lon": 12.5343494, "tags": {"bench": "yes", "bin": "yes", "bus": "yes", "highway": "bus_stop", "lit": "yes", "name": "Frederiksberg St.", "network": "Movia", "network:wikidata": "Q3359392", "public_transport": "platform", "shelter": "yes", "tactile_paving": "yes", "wheelchair": "yes"}}, {"type": "node", "id": 1110968269, "lat": 55.6818502, "lon": 12.5229774, "tags": {"bench": "yes", "bin": "yes", "bus": "yes", "highway": "bus_stop", "lit": "yes", "name": "Fasanvej St.", "network": "Movia", "network:wikidata": "Q3359392", "public_transport": "platform", "shelter": "yes", "tactile_paving": "yes"}}, {"type": "node", "id": 1110968271, "lat": 55.681473, "lon": 12.522416, "tags": {"bus": "yes", "highway": "bus_stop", "name": "Fasanvej St.", "network": "Movia", "network:wikidata": "Q3359392", "public_transport": "platform"}}, {"type": "node", "id": 1110968274, "lat": 55.6789052, "lon": 12.52872, "tags": {"bench": "yes", "bin": "yes", "bus": "yes", "covered": "yes", "highway": "bus_stop", "lit": "yes", "name": "Frederiksberg Bredegade", "network": "Movia", "network:wikidata": "Q3359392", "public_transport": "platform", "shelter": "yes", "tactile_paving": "yes", "wheelchair": "yes"}}, {"type": "node", "id": 1110968275, "lat": 55.6790754, "lon": 12.5284799, "tags": {"bench": "yes", "bin": "yes", "bus": "yes", "highway": "bus_stop", "lit": "yes", "name": "Frederiksberg Bredegade", "network": "Movia", "network:wikidata": "Q3359392", "public_transport": "platform", "shelter": "no", "tactile_paving": "no", "wheelchair": "yes"}}, {"type": "node", "id": 1110968276, "lat": 55.6784786, "lon": 12.532177, "tags": {"bench": "yes", "bin": "yes", "highway": "bus_stop", "name": "Frederiksberg R\u00e5dhus", "network": "Movia", "network:wikidata": "Q3359392", "public_transport": "platform", "shelter": "yes", "wheelchair": "yes"}}, {"type": "node", "id": 1110968285, "lat": 55.6815593, "lon": 12.5159575, "tags": {"bench": "no", "bin": "yes", "bus": "yes", "highway": "bus_stop", "name": "Eversvej", "network": "Movia", "network:wikidata": "Q3359392", "public_transport": "platform", "shelter": "no", "tactile_paving": "no"}}, {"type": "node", "id": 1110968286, "lat": 55.6792242, "lon": 12.520343, "tags": {"bench": "yes", "bus": "yes", "covered": "yes", "highway": "bus_stop", "name": "Fasanvej", "network": "Movia", "network:wikidata": "Q3359392", "public_transport": "platform", "shelter": "yes"}}, {"type": "node", "id": 1110968287, "lat": 55.6795281, "lon": 12.522408, "tags": {"bench": "no", "bin": "yes", "bus": "yes", "covered": "no", "highway": "bus_stop", "name": "Fasanvej", "network": "Movia", "network:wikidata": "Q3359392", "public_transport": "platform", "shelter": "no", "tactile_paving": "no"}}, {"type": "node", "id": 1110968295, "lat": 55.6790147, "lon": 12.5211265, "tags": {"bench": "yes", "bus": "yes", "highway": "bus_stop", "name": "Peter Bangs Vej", "network": "Movia", "network:wikidata": "Q3359392", "public_transport": "platform", "shelter": "yes"}}, {"type": "node", "id": 1110968296, "lat": 55.6786962, "lon": 12.5211753, "tags": {"bench": "yes", "bin": "yes", "bus": "yes", "check_date:shelter": "2022-08-11", "highway": "bus_stop", "name": "Peter Bangs Vej", "network": "Movia", "network:wikidata": "Q3359392", "public_transport": "platform", "shelter": "yes"}}, {"type": "node", "id": 1110968308, "lat": 55.6788704, "lon": 12.5125572, "tags": {"bus": "yes", "highway": "bus_stop", "name": "Folkets All\u00e9", "network": "Movia", "network:wikidata": "Q3359392", "public_transport": "platform"}}, {"type": "node", "id": 1110968310, "lat": 55.67895, "lon": 12.5121355, "tags": {"highway": "bus_stop"}}, {"type": "node", "id": 1110968311, "lat": 55.6790179, "lon": 12.5168344, "tags": {"bus": "yes", "highway": "bus_stop", "name": "Lindevangs All\u00e9", "network": "Movia", "network:wikidata": "Q3359392", "public_transport": "platform"}}, {"type": "node", "id": 1181499872, "lat": 55.6728304, "lon": 12.5662025, "tags": {"bus": "yes", "highway": "bus_stop", "name": "Hovedbaneg\u00e5rden, Tivoli", "network": "Movia", "network:wikidata": "Q3359392", "network:wikipedia": "da:Movia", "public_transport": "stop_position"}}, {"type": "node", "id": 1191099071, "lat": 55.6609358, "lon": 12.5052953, "tags": {"bench": "yes", "bus": "yes", "highway": "bus_stop", "name": "Fengersvej", "network": "Movia", "network:wikidata": "Q3359392", "public_transport": "platform", "shelter": "yes", "tactile_paving": "yes"}}, {"type": "node", "id": 1191119117, "lat": 55.6613391, "lon": 12.5128963, "tags": {"bench": "yes", "bin": "no", "bus": "yes", "highway": "bus_stop", "name": "Peder Hjorts Vej", "network": "Movia", "network:wikidata": "Q3359392", "public_transport": "platform", "shelter": "yes", "tactile_paving": "yes"}}, {"type": "node", "id": 1191119122, "lat": 55.6572061, "lon": 12.4939777, "tags": {"bus": "yes", "highway": "bus_stop", "name": "Hornemanns V\u00e6nge", "network": "Movia", "network:wikidata": "Q3359392", "public_transport": "platform"}}, {"type": "node", "id": 1191119126, "lat": 55.6615208, "lon": 12.5180834, "tags": {"bench": "yes", "bin": "yes", "bus": "yes", "highway": "bus_stop", "lit": "yes", "name": "Tofteg\u00e5rds Plads", "network": "Movia", "network:wikidata": "Q3359392", "public_transport": "platform", "shelter": "yes", "tactile_paving": "yes"}}, {"type": "node", "id": 1191119129, "lat": 55.6611992, "lon": 12.5077211, "tags": {"bench": "yes", "bin": "yes", "bus": "yes", "highway": "bus_stop", "lit": "yes", "name": "Vigerslev All\u00e9 Skole", "network": "Movia", "network:wikidata": "Q3359392", "public_transport": "platform", "shelter": "yes", "tactile_paving": "yes"}}, {"type": "node", "id": 1191119136, "lat": 55.6618295, "lon": 12.518401, "tags": {"bench": "yes", "bin": "yes", "bus": "yes", "highway": "bus_stop", "lit": "yes", "name": "Tofteg\u00e5rds Plads", "network": "Movia", "network:wikidata": "Q3359392", "public_transport": "platform", "shelter": "yes", "tactile_paving": "yes", "wheelchair": "yes"}}, {"type": "node", "id": 1191119138, "lat": 55.661205, "lon": 12.5095126, "tags": {"bench": "yes", "bin": "yes", "bus": "yes", "highway": "bus_stop", "lit": "yes", "name": "Vigerslev All\u00e9 Skole", "network": "Movia", "network:wikidata": "Q3359392", "public_transport": "platform", "shelter": "yes", "tactile_paving": "yes"}}, {"type": "node", "id": 1191119141, "lat": 55.661417, "lon": 12.5115326, "tags": {"bench": "yes", "bin": "yes", "bus": "yes", "highway": "bus_stop", "lit": "yes", "name": "Peder Hjorts Vej", "network": "Movia", "network:wikidata": "Q3359392", "public_transport": "platform", "shelter": "yes", "tactile_paving": "no"}}, {"type": "node", "id": 1191126867, "lat": 55.6609626, "lon": 12.5038035, "tags": {"bench": "yes", "bus": "yes", "highway": "bus_stop", "name": "Fengersvej", "network": "Movia", "network:wikidata": "Q3359392", "public_transport": "platform", "shelter": "yes"}}, {"type": "node", "id": 1191126877, "lat": 55.6600697, "lon": 12.498977, "tags": {"bench": "yes", "bin": "yes", "bus": "yes", "highway": "bus_stop", "name": "Vigerslev All\u00e9 St.", "network": "Movia", "network:wikidata": "Q3359392", "public_transport": "platform", "shelter": "yes"}}, {"type": "node", "id": 1191126879, "lat": 55.6597663, "lon": 12.4979703, "tags": {"bench": "yes", "bus": "yes", "highway": "bus_stop", "name": "Vigerslev All\u00e9 St.", "network": "Movia", "network:wikidata": "Q3359392", "public_transport": "platform", "shelter": "yes"}}, {"type": "node", "id": 1200016415, "lat": 55.6966197, "lon": 12.5454166, "tags": {"bench": "no", "bin": "yes", "bus": "yes", "highway": "bus_stop", "lit": "no", "name": "Stefansgade", "network": "Movia", "network:wikidata": "Q3359392", "public_transport": "platform", "shelter": "no", "tactile_paving": "yes", "wheelchair": "yes"}}, {"type": "node", "id": 1205566193, "lat": 55.6777959, "lon": 12.6020422, "tags": {"bench": "yes", "bin": "yes", "bus": "yes", "highway": "bus_stop", "lit": "yes", "name": "Arsenal\u00f8en", "network": "Movia", "network:wikidata": "Q3359392", "public_transport": "platform", "shelter": "no", "tactile_paving": "no"}}, {"type": "node", "id": 1205571020, "lat": 55.6795155, "lon": 12.6031151, "tags": {"bench": "yes", "bin": "yes", "bus": "yes", "highway": "bus_stop", "lit": "yes", "name": "Galionsvej", "network": "Movia", "network:wikidata": "Q3359392", "passenger_information_display": "yes", "public_transport": "platform", "shelter": "yes", "tactile_paving": "no"}}, {"type": "node", "id": 1205865785, "lat": 55.6721244, "lon": 12.5939921, "tags": {"bench": "no", "bin": "yes", "bus": "yes", "highway": "bus_stop", "name": "Skt. Ann\u00e6 Gade", "network": "Movia", "network:wikidata": "Q3359392", "public_transport": "platform", "shelter": "no"}}, {"type": "node", "id": 1205865787, "lat": 55.6763745, "lon": 12.6010341, "tags": {"highway": "bus_stop", "public_transport": "platform"}}, {"type": "node", "id": 1205865795, "lat": 55.675159, "lon": 12.5994056, "tags": {"bench": "yes", "bin": "yes", "bus": "yes", "highway": "bus_stop", "lit": "yes", "name": "Bodenhoffs Plads", "network": "Movia", "network:wikidata": "Q3359392", "public_transport": "platform", "shelter": "yes", "tactile_paving": "no"}}, {"type": "node", "id": 1205865798, "lat": 55.6721379, "lon": 12.5917363, "tags": {"bench": "no", "bin": "yes", "bus": "yes", "highway": "bus_stop", "lit": "yes", "name": "Christianshavn St.", "network": "Movia", "network:wikidata": "Q3359392", "public_transport": "platform", "shelter": "yes", "tactile_paving": "no"}}, {"type": "node", "id": 1205865800, "lat": 55.6722485, "lon": 12.5939209, "tags": {"bench": "no", "bin": "yes", "bus": "yes", "highway": "bus_stop", "lit": "no", "name": "Skt. Ann\u00e6 Gade", "network": "Movia", "network:wikidata": "Q3359392", "public_transport": "platform", "shelter": "no", "tactile_paving": "yes"}}, {"type": "node", "id": 1205865801, "lat": 55.6740322, "lon": 12.5885833, "tags": {"bench": "yes", "bin": "yes", "bus": "yes", "check_date:tactile_paving": "2021-06-13", "highway": "bus_stop", "lit": "yes", "name": "Knippelsbro", "network": "Movia", "network:wikidata": "Q3359392", "public_transport": "platform", "shelter": "yes", "tactile_paving": "yes"}}, {"type": "node", "id": 1205865802, "lat": 55.6723889, "lon": 12.5915209, "tags": {"bench": "no", "bin": "yes", "bus": "yes", "highway": "bus_stop", "lit": "yes", "name": "Christianshavn St.", "network": "Movia", "network:wikidata": "Q3359392", "public_transport": "platform", "shelter": "no", "tactile_paving": "yes"}}, {"type": "node", "id": 1206386446, "lat": 55.6733328, "lon": 12.5895119, "tags": {"bench": "no", "bin": "yes", "bus": "yes", "highway": "bus_stop", "lit": "no", "name": "Knippelsbro", "network": "Movia", "network:wikidata": "Q3359392", "public_transport": "platform", "shelter": "no", "tactile_paving": "yes"}}, {"type": "node", "id": 1211228955, "lat": 55.6820211, "lon": 12.6052739, "tags": {"bench": "yes", "bin": "yes", "bus": "yes", "highway": "bus_stop", "lit": "yes", "name": "Fabrikmestervej, Operaen", "network": "Movia", "network:wikidata": "Q3359392", "public_transport": "platform", "shelter": "yes", "tactile_paving": "no"}}, {"type": "node", "id": 1212547869, "lat": 55.6795644, "lon": 12.6033055, "tags": {"bench": "yes", "bin": "yes", "bus": "yes", "highway": "bus_stop", "name": "Galionsvej", "network": "Movia", "network:wikidata": "Q3359392", "public_transport": "platform", "shelter": "no", "tactile_paving": "no"}}, {"type": "node", "id": 1212548237, "lat": 55.6822928, "lon": 12.6056631, "tags": {"bench": "yes", "bin": "yes", "bus": "yes", "highway": "bus_stop", "lit": "yes", "name": "Fabrikmestervej, Operaen", "network": "Movia", "network:wikidata": "Q3359392", "public_transport": "platform", "shelter": "yes", "tactile_paving": "no"}}, {"type": "node", "id": 1215791837, "lat": 55.6847221, "lon": 12.48439, "tags": {"bench": "yes", "bin": "no", "highway": "bus_stop", "lit": "yes", "name": "\u00c5lekistevej", "shelter": "yes", "tactile_paving": "yes"}}, {"type": "node", "id": 1227080465, "lat": 55.6922672, "lon": 12.5520273, "tags": {"bench": "yes", "bin": "no", "bus": "yes", "highway": "bus_stop", "lit": "yes", "name": "Sj\u00e6llandsgade", "network": "Movia", "network:wikidata": "Q3359392", "public_transport": "platform", "shelter": "yes", "tactile_paving": "yes"}}, {"type": "node", "id": 1227080467, "lat": 55.6908349, "lon": 12.5541815, "tags": {"bench": "yes", "bin": "yes", "bus": "yes", "highway": "bus_stop", "lit": "yes", "name": "Kapelvej", "network": "Movia", "network:wikidata": "Q3359392", "public_transport": "platform", "shelter": "yes", "tactile_paving": "yes"}}, {"type": "node", "id": 1227080468, "lat": 55.6923948, "lon": 12.5516451, "tags": {"bench": "yes", "bin": "yes", "bus": "yes", "highway": "bus_stop", "lit": "yes", "name": "Sj\u00e6llandsgade", "network": "Movia", "network:wikidata": "Q3359392", "public_transport": "platform", "shelter": "yes", "tactile_paving": "no"}}, {"type": "node", "id": 1227080473, "lat": 55.6902354, "lon": 12.5548912, "tags": {"bench": "no", "bin": "yes", "bus": "yes", "highway": "bus_stop", "lit": "yes", "name": "Kapelvej", "network": "Movia", "network:wikidata": "Q3359392", "public_transport": "platform", "shelter": "no", "tactile_paving": "no"}}, {"type": "node", "id": 1271842805, "lat": 55.7230288, "lon": 12.529946, "tags": {"bench": "yes", "bin": "yes", "bus": "yes", "highway": "bus_stop", "lit": "yes", "name": "Emdrup Torv", "network": "Movia", "network:wikidata": "Q3359392", "public_transport": "platform", "shelter": "yes", "tactile_paving": "yes"}}, {"type": "node", "id": 1271842807, "lat": 55.7227826, "lon": 12.5297153, "tags": {"bench": "yes", "bin": "yes", "bus": "yes", "highway": "bus_stop", "name": "Emdrup Torv", "network": "Movia", "network:wikidata": "Q3359392", "public_transport": "platform", "shelter": "yes"}}, {"type": "node", "id": 1306239503, "lat": 55.6638585, "lon": 12.5163476, "tags": {"bench": "yes", "bin": "yes", "bus": "yes", "highway": "bus_stop", "lit": "yes", "name": "Valby St., broen", "network": "Movia", "network:wikidata": "Q3359392", "public_transport": "platform", "shelter": "yes", "tactile_paving": "no"}}, {"type": "node", "id": 1307890141, "lat": 55.7271475, "lon": 12.571521, "tags": {"highway": "bus_stop", "name": "Lundevangen", "network": "Movia", "network:wikidata": "Q3359392", "shelter": "no"}}, {"type": "node", "id": 1307890142, "lat": 55.7268916, "lon": 12.5729996, "tags": {"bus": "yes", "highway": "bus_stop", "name": "Lundevangen", "network": "Movia", "network:wikidata": "Q3359392", "public_transport": "platform", "shelter": "no"}}, {"type": "node", "id": 1307890145, "lat": 55.7298986, "lon": 12.5767038, "tags": {"bus": "yes", "highway": "bus_stop", "name": "Callisensvej", "network": "Movia", "network:wikidata": "Q3359392", "public_transport": "platform"}}, {"type": "node", "id": 1307890146, "lat": 55.7272679, "lon": 12.5757582, "tags": {"bench": "yes", "bin": "yes", "bus": "yes", "highway": "bus_stop", "name": "Tuborg Boulevard", "network": "Movia", "network:wikidata": "Q3359392", "passenger_information_display": "yes", "public_transport": "platform", "shelter": "yes", "tactile_paving": "yes"}}, {"type": "node", "id": 1308015322, "lat": 55.7230295, "lon": 12.5775538, "tags": {"bench": "yes", "bin": "yes", "bus": "yes", "highway": "bus_stop", "lit": "yes", "name": "Gl. Vartov Vej", "network": "Movia", "network:wikidata": "Q3359392", "passenger_information_display": "yes", "public_transport": "platform", "shelter": "yes", "tactile_paving": "yes"}}, {"type": "node", "id": 1308015323, "lat": 55.7152865, "lon": 12.5773948, "tags": {"bench": "yes", "bin": "yes", "bus": "yes", "highway": "bus_stop", "lit": "yes", "name": "Svanem\u00f8llen St.", "network": "Movia", "network:wikidata": "Q3359392", "network:wikipedia": "da:Movia", "passenger_information_display": "yes", "public_transport": "platform", "shelter": "yes", "tactile_paving": "no"}}, {"type": "node", "id": 1308015324, "lat": 55.723854, "lon": 12.5775247, "tags": {"bench": "yes", "bin": "yes", "bus": "yes", "highway": "bus_stop", "lit": "yes", "name": "Gl. Vartov Vej", "network": "Movia", "network:wikidata": "Q3359392", "public_transport": "platform", "shelter": "yes", "tactile_paving": "yes"}}, {"type": "node", "id": 1308015325, "lat": 55.7270578, "lon": 12.5762202, "tags": {"bus": "yes", "highway": "bus_stop", "name": "Tuborg Boulevard", "network": "Movia", "network:wikidata": "Q3359392", "public_transport": "platform", "shelter": "yes", "tactile_paving": "no"}}, {"type": "node", "id": 1308015326, "lat": 55.7212141, "lon": 12.5774529, "tags": {"bench": "yes", "bin": "yes", "bus": "yes", "highway": "bus_stop", "lit": "yes", "name": "Strand\u00f8re", "network": "Movia", "network:wikidata": "Q3359392", "public_transport": "platform", "shelter": "yes", "tactile_paving": "yes"}}, {"type": "node", "id": 1308015327, "lat": 55.7210164, "lon": 12.5770408, "tags": {"bench": "yes", "bin": "yes", "bus": "yes", "check_date": "2018-04-17", "highway": "bus_stop", "lit": "yes", "name": "Strand\u00f8re", "network": "Movia", "network:wikidata": "Q3359392", "passenger_information_display": "yes", "public_transport": "platform", "ref": "1447", "shelter": "yes", "tactile_paving": "no"}}, {"type": "node", "id": 1308015329, "lat": 55.717231, "lon": 12.5774023, "tags": {"bench": "yes", "bin": "yes", "bus": "yes", "check_date": "2018-06-12", "highway": "bus_stop", "lit": "yes", "name": "Strandv\u00e6nget", "network": "Movia", "network:wikidata": "Q3359392", "network:wikipedia": "da:Movia", "public_transport": "platform", "ref": "1445", "shelter": "yes", "tactile_paving": "yes"}}, {"type": "node", "id": 1308015331, "lat": 55.715019, "lon": 12.57799, "tags": {"bench": "yes", "bin": "yes", "bus": "yes", "check_date": "2018-06-16", "highway": "bus_stop", "lit": "yes", "name": "Svanem\u00f8llen St., Sl\u00f8jfen", "network": "Movia", "network:wikidata": "Q3359392", "network:wikipedia": "da:Movia", "passenger_information_display": "yes", "public_transport": "platform", "ref": "1621", "shelter": "yes", "tactile_paving": "no"}}, {"type": "node", "id": 1308015332, "lat": 55.7153713, "lon": 12.5777553, "tags": {"bench": "yes", "bin": "yes", "bus": "yes", "check_date": "2018-06-16", "highway": "bus_stop", "lit": "yes", "name": "Svanem\u00f8llen St.", "operator": "AFA JCDecaux;Movia", "public_transport": "platform", "ref": "1623", "shelter": "yes", "tactile_paving": "no"}}, {"type": "node", "id": 1308065513, "lat": 55.7084884, "lon": 12.5771417, "tags": {"bench": "yes", "bin": "no", "bus": "yes", "highway": "bus_stop", "lit": "yes", "name": "Poul Henningsens Plads (Jagtvej)", "network": "Movia", "network:wikidata": "Q3359392", "network:wikipedia": "da:Movia", "public_transport": "platform", "shelter": "yes", "tactile_paving": "yes", "wheelchair": "no"}}, {"type": "node", "id": 1308065520, "lat": 55.6920217, "lon": 12.5875484, "tags": {"alt_name": "Oslo Plads", "bench": "yes", "bin": "yes", "bus": "yes", "highway": "bus_stop", "name": "\u00d8sterport St.", "network": "Movia", "network:wikidata": "Q3359392", "network:wikipedia": "da:Movia", "public_transport": "platform", "shelter": "yes"}}, {"type": "node", "id": 1308065522, "lat": 55.692054, "lon": 12.5868938, "tags": {"bench": "yes", "bin": "yes", "bus": "yes", "highway": "bus_stop", "name": "\u00d8sterport St. (Oslo Plads)", "network": "Movia", "network:wikidata": "Q3359392", "network:wikipedia": "da:Movia", "public_transport": "platform", "shelter": "yes"}}, {"type": "node", "id": 1308065529, "lat": 55.7065802, "lon": 12.5776398, "tags": {"bench": "no", "bin": "yes", "highway": "bus_stop", "lit": "yes", "name": "\u00c5rhusgade", "passenger_information_display": "no", "public_transport": "platform", "shelter": "no", "tactile_paving": "no", "wheelchair": "limited"}}, {"type": "node", "id": 1308065546, "lat": 55.6769115, "lon": 12.5836329, "tags": {"bus": "yes", "highway": "bus_stop", "name": "Holmens Kirke", "network": "Movia", "network:wikidata": "Q3359392", "public_transport": "platform", "shelter": "no"}}, {"type": "node", "id": 1308065550, "lat": 55.7061836, "lon": 12.577266, "tags": {"bench": "yes", "bin": "no", "bus": "yes", "highway": "bus_stop", "lit": "yes", "name": "\u00c5rhusgade", "network": "Movia", "network:wikidata": "Q3359392", "network:wikipedia": "da:Movia", "passenger_information_display": "yes", "public_transport": "platform", "shelter": "yes", "tactile_paving": "yes"}}, {"type": "node", "id": 1308065553, "lat": 55.7095735, "lon": 12.5777195, "tags": {"bench": "no", "bin": "yes", "bus": "yes", "highway": "bus_stop", "lit": "yes", "name": "Poul Henningsens Plads St.", "network": "Movia", "network:wikidata": "Q3359392", "network:wikipedia": "da:Movia", "public_transport": "platform", "shelter": "no", "tactile_paving": "no"}}, {"type": "node", "id": 1308065556, "lat": 55.6831997, "lon": 12.5893879, "tags": {"alt_name": "Odd Fellow Pal\u00e6et", "bench": "no", "highway": "bus_stop", "name": "Amalienborg", "public_transport": "platform", "shelter": "no"}}, {"type": "node", "id": 1308065559, "lat": 55.7022003, "lon": 12.5772505, "tags": {"bench": "yes", "bin": "yes", "bus": "yes", "highway": "bus_stop", "lit": "yes", "name": "Gustav Adolfs Gade", "network": "Movia", "network:wikidata": "Q3359392", "public_transport": "platform", "shelter": "yes", "tactile_paving": "yes", "wheelchair": "limited"}}, {"type": "node", "id": 1308065569, "lat": 55.6954151, "lon": 12.5805866, "tags": {"alt_name": "Dag Hammarskj\u00f6lds All\u00e9", "bench": "yes", "bin": "yes", "bus": "yes", "highway": "bus_stop", "lit": "yes", "name": "Lille Triangel", "operator": "AFA JCDecaux;Movia", "public_transport": "platform", "ref": "1090", "shelter": "yes", "tactile_paving": "yes"}}, {"type": "node", "id": 1308065581, "lat": 55.6875498, "lon": 12.5901228, "tags": {"highway": "bus_stop", "name": "Esplanaden", "public_transport": "platform"}}, {"type": "node", "id": 1308065585, "lat": 55.7132613, "lon": 12.5776563, "tags": {"bench": "yes", "bin": "yes", "bus": "yes", "highway": "bus_stop", "lit": "yes", "name": "Nyg\u00e5rdsvej", "network": "Movia", "network:wikidata": "Q3359392", "network:wikipedia": "da:Movia", "passenger_information_display": "yes", "public_transport": "platform", "shelter": "yes", "tactile_paving": "no"}}, {"type": "node", "id": 1308065590, "lat": 55.6789387, "lon": 12.5855109, "tags": {"bench": "yes", "bin": "yes", "bus": "yes", "highway": "bus_stop", "lit": "yes", "name": "Kongens Nytorv St.", "network": "Movia", "network:wikidata": "Q3359392", "public_transport": "platform", "shelter": "yes", "tactile_paving": "yes", "wheelchair": "yes"}}, {"type": "node", "id": 1308065594, "lat": 55.6955143, "lon": 12.5807404, "tags": {"bench": "yes", "bin": "yes", "bus": "yes", "highway": "bus_stop", "name": "Lille Triangel", "network": "Movia", "network:wikidata": "Q3359392", "public_transport": "platform", "shelter": "yes", "tactile_paving": "yes"}}, {"type": "node", "id": 1308065596, "lat": 55.6791331, "lon": 12.5857825, "tags": {"bench": "yes", "bin": "yes", "bus": "yes", "highway": "bus_stop", "lit": "yes", "name": "Kongens Nytorv St.", "network": "Movia", "network:wikidata": "Q3359392", "public_transport": "platform", "shelter": "yes", "tactile_paving": "yes"}}, {"type": "node", "id": 1308065601, "lat": 55.7028084, "lon": 12.5775498, "tags": {"bench": "yes", "bin": "no", "highway": "bus_stop", "lit": "yes", "name": "Gustav Adolfs Gade", "public_transport": "platform", "shelter": "no", "tactile_paving": "no", "wheelchair": "limited"}}, {"type": "node", "id": 1308065604, "lat": 55.6773895, "lon": 12.5846541, "tags": {"bench": "yes", "bin": "yes", "bus": "yes", "highway": "bus_stop", "name": "Holmens Kirke", "network": "Movia", "network:wikidata": "Q3359392", "public_transport": "platform", "shelter": "yes", "tactile_paving": "yes"}}, {"type": "node", "id": 1308199151, "lat": 55.658627, "lon": 12.4900491, "tags": {"bench": "yes", "bin": "yes", "bus": "yes", "highway": "bus_stop", "lit": "yes", "name": "Vigerslev Kirke", "network": "Movia", "network:wikidata": "Q3359392", "public_transport": "platform", "shelter": "yes", "tactile_paving": "no"}}, {"type": "node", "id": 1308199163, "lat": 55.6595885, "lon": 12.493755, "tags": {"bench": "yes", "bin": "yes", "bus": "yes", "highway": "bus_stop", "lit": "yes", "name": "Gladbovej", "network": "Movia", "network:wikidata": "Q3359392", "public_transport": "platform", "shelter": "yes", "tactile_paving": "no"}}, {"type": "node", "id": 1308199188, "lat": 55.6629983, "lon": 12.5361552, "tags": {"bus": "yes", "highway": "bus_stop", "name": "Carlsberg St.", "network": "Movia", "network:wikidata": "Q3359392", "public_transport": "platform", "shelter": "yes"}}, {"type": "node", "id": 1308199195, "lat": 55.6625609, "lon": 12.5232413, "tags": {"bench": "yes", "bin": "yes", "bus": "yes", "highway": "bus_stop", "lit": "yes", "name": "Sj\u00e6l\u00f8r Boulevard", "network": "Movia", "network:wikidata": "Q3359392", "public_transport": "platform", "shelter": "yes", "tactile_paving": "yes"}}, {"type": "node", "id": 1308199201, "lat": 55.6586833, "lon": 12.4898274, "tags": {"bench": "yes", "bin": "yes", "bus": "yes", "highway": "bus_stop", "lit": "yes", "name": "Vigerslev Kirke", "network": "Movia", "network:wikidata": "Q3359392", "public_transport": "platform", "shelter": "yes", "tactile_paving": "yes"}}, {"type": "node", "id": 1308199207, "lat": 55.6619026, "lon": 12.524486, "tags": {"bench": "yes", "bus": "yes", "highway": "bus_stop", "lit": "yes", "name": "Vigerslev All\u00e9", "network": "Movia", "network:wikidata": "Q3359392", "public_transport": "platform", "shelter": "yes"}}, {"type": "node", "id": 1308199243, "lat": 55.6596756, "lon": 12.4940361, "tags": {"bench": "yes", "bin": "yes", "bus": "yes", "highway": "bus_stop", "lit": "yes", "name": "Gladbovej", "network": "Movia", "network:wikidata": "Q3359392", "public_transport": "platform", "shelter": "yes", "tactile_paving": "no"}}, {"type": "node", "id": 1308199253, "lat": 55.6625512, "lon": 12.5250792, "tags": {"bench": "yes", "bin": "yes", "bus": "yes", "highway": "bus_stop", "lit": "yes", "name": "Sj\u00e6l\u00f8r Boulevard", "network": "Movia", "network:wikidata": "Q3359392", "public_transport": "platform", "shelter": "yes", "tactile_paving": "yes"}}, {"type": "node", "id": 1308199260, "lat": 55.6752794, "lon": 12.5711914, "tags": {"bench": "no", "bin": "no", "bus": "yes", "highway": "bus_stop", "lit": "yes", "name": "L\u00f8ngangstr\u00e6de", "public_transport": "platform", "shelter": "no", "tactile_paving": "no"}}, {"type": "node", "id": 1308199266, "lat": 55.6609645, "lon": 12.5161324, "tags": {"bench": "no", "bin": "yes", "bus": "yes", "highway": "bus_stop", "lit": "no", "name": "Tofteg\u00e5rds Plads", "network": "Movia", "network:wikidata": "Q3359392", "public_transport": "platform", "shelter": "no", "tactile_paving": "no"}}, {"type": "node", "id": 1308283121, "lat": 55.7225106, "lon": 12.4854181, "tags": {"bus": "yes", "highway": "bus_stop", "name": "Fuglegavl", "network": "Movia", "network:wikidata": "Q3359392", "public_transport": "platform"}}, {"type": "node", "id": 1308283122, "lat": 55.7073621, "lon": 12.4864103, "tags": {"bus": "yes", "highway": "bus_stop", "name": "Veks\u00f8vej", "network": "Movia", "network:wikidata": "Q3359392", "public_transport": "platform"}}, {"type": "node", "id": 1308283123, "lat": 55.709737, "lon": 12.4854608, "tags": {"bus": "yes", "highway": "bus_stop", "name": "Husumvold Kirke", "network": "Movia", "network:wikidata": "Q3359392", "public_transport": "platform"}}, {"type": "node", "id": 1308283132, "lat": 55.7173944, "lon": 12.4855254, "tags": {"bench": "yes", "bin": "yes", "bus": "yes", "highway": "bus_stop", "lit": "no", "name": "Tingbjerg Skole", "network": "Movia", "network:wikidata": "Q3359392", "public_transport": "platform", "shelter": "yes", "tactile_paving": "no"}}, {"type": "node", "id": 1308283136, "lat": 55.7171164, "lon": 12.4891437, "tags": {"highway": "bus_stop", "name": "Terrasserne", "public_transport": "platform"}}, {"type": "node", "id": 1308283137, "lat": 55.7177298, "lon": 12.4845598, "tags": {"bench": "yes", "bin": "yes", "bus": "yes", "highway": "bus_stop", "lit": "no", "name": "Tingbjerg Skole", "network": "Movia", "network:wikidata": "Q3359392", "public_transport": "platform", "shelter": "yes", "tactile_paving": "no"}}, {"type": "node", "id": 1308283138, "lat": 55.7125117, "lon": 12.4855941, "tags": {"bus": "yes", "highway": "bus_stop", "name": "Energicenter Voldparken", "network": "Movia", "network:wikidata": "Q3359392", "public_transport": "platform"}}, {"type": "node", "id": 1308283143, "lat": 55.709189, "lon": 12.4857141, "tags": {"bus": "yes", "highway": "bus_stop", "name": "Husumvold Kirke", "network": "Movia", "network:wikidata": "Q3359392", "public_transport": "platform"}}, {"type": "node", "id": 1308283146, "lat": 55.703766, "lon": 12.4992181, "tags": {"bench": "no", "bin": "yes", "covered": "no", "highway": "bus_stop", "name": "Br\u00f8nsh\u00f8j Torv", "network": "Linie 10", "public_transport": "platform", "shelter": "no", "tactile_paving": "yes"}}, {"type": "node", "id": 1308283148, "lat": 55.7222998, "lon": 12.4859143, "tags": {"bus": "yes", "highway": "bus_stop", "name": "Fuglegavl", "network": "Movia", "network:wikidata": "Q3359392", "public_transport": "platform"}}, {"type": "node", "id": 1308283150, "lat": 55.7044372, "lon": 12.4985435, "tags": {"bench": "yes", "bin": "yes", "bus": "yes", "highway": "bus_stop", "lit": "yes", "name": "Br\u00f8nsh\u00f8j Torv", "network": "Movia", "network:wikidata": "Q3359392", "public_transport": "platform", "shelter": "yes", "tactile_paving": "yes"}}, {"type": "node", "id": 1308283151, "lat": 55.7171104, "lon": 12.4882211, "tags": {"bench": "no", "bin": "yes", "bus": "yes", "highway": "bus_stop", "lit": "yes", "name": "Terrasserne", "network": "Movia", "network:wikidata": "Q3359392", "public_transport": "platform", "shelter": "no", "tactile_paving": "no"}}, {"type": "node", "id": 1308283154, "lat": 55.7187028, "lon": 12.4801047, "tags": {"bench": "yes", "bin": "yes", "bus": "yes", "highway": "bus_stop", "lit": "no", "name": "Tingbjerg Kirke", "network": "Movia", "network:wikidata": "Q3359392", "public_transport": "platform", "shelter": "yes", "tactile_paving": "no"}}, {"type": "node", "id": 1308283160, "lat": 55.7185895, "lon": 12.4809711, "tags": {"bench": "yes", "bin": "yes", "bus": "yes", "highway": "bus_stop", "lit": "yes", "name": "Tingbjerg Kirke", "network": "Movia", "network:wikidata": "Q3359392", "public_transport": "platform", "shelter": "yes", "tactile_paving": "no"}}, {"type": "node", "id": 1308283163, "lat": 55.7020973, "lon": 12.4978729, "tags": {"bench": "yes", "bin": "yes", "bus": "yes", "departures_board": "realtime", "highway": "bus_stop", "lit": "yes", "name": "Vall\u00f8vej", "network": "Movia", "network:wikidata": "Q3359392", "public_transport": "platform", "shelter": "yes", "tactile_paving": "yes"}}, {"type": "node", "id": 1308283164, "lat": 55.7215863, "lon": 12.4813707, "tags": {"bus": "yes", "highway": "bus_stop", "name": "Arkaderne", "network": "Movia", "network:wikidata": "Q3359392", "public_transport": "platform"}}, {"type": "node", "id": 1308283167, "lat": 55.7211018, "lon": 12.4901375, "tags": {"bus": "yes", "highway": "bus_stop", "name": "Tingbjerg (Gavlhusvej)", "network": "Movia", "network:wikidata": "Q3359392", "public_transport": "platform"}}, {"type": "node", "id": 1308283169, "lat": 55.701946, "lon": 12.4976879, "tags": {"bench": "yes", "bin": "yes", "bus": "yes", "departures_board": "realtime", "highway": "bus_stop", "lit": "yes", "name": "Vall\u00f8vej", "network": "Movia", "network:wikidata": "Q3359392", "public_transport": "platform", "shelter": "yes", "tactile_paving": "yes"}}, {"type": "node", "id": 1308283171, "lat": 55.7065364, "lon": 12.4883244, "tags": {"bus": "yes", "highway": "bus_stop", "name": "Veks\u00f8vej", "network": "Movia", "network:wikidata": "Q3359392", "public_transport": "platform"}}, {"type": "node", "id": 1308283174, "lat": 55.7213156, "lon": 12.4809053, "tags": {"bench": "yes", "bus": "yes", "highway": "bus_stop", "name": "Arkaderne", "network": "Movia", "network:wikidata": "Q3359392", "public_transport": "platform", "shelter": "yes"}}, {"type": "node", "id": 1308283177, "lat": 55.704649, "lon": 12.4984219, "tags": {"bench": "yes", "bin": "yes", "bus": "yes", "highway": "bus_stop", "name": "Br\u00f8nsh\u00f8j Torv", "network": "Movia", "network:wikidata": "Q3359392", "public_transport": "platform", "shelter": "yes"}}, {"type": "node", "id": 1309139714, "lat": 55.6824101, "lon": 12.5505177, "tags": {"bench": "no", "bin": "yes", "bus": "yes", "highway": "bus_stop", "lit": "yes", "name": "H.C. \u00d8rsteds Vej", "network": "Movia", "network:wikidata": "Q3359392", "public_transport": "platform", "shelter": "no", "tactile_paving": "no"}}, {"type": "node", "id": 1309139715, "lat": 55.6837519, "lon": 12.5450534, "tags": {"bench": "yes", "bin": "yes", "bus": "yes", "highway": "bus_stop", "lit": "yes", "name": "Det Biovidenskabelige Fakultet", "network": "Movia", "network:wikidata": "Q3359392", "public_transport": "platform", "shelter": "no", "tactile_paving": "yes"}}, {"type": "node", "id": 1309139716, "lat": 55.6837513, "lon": 12.5454361, "tags": {"bench": "yes", "bin": "yes", "bus": "yes", "highway": "bus_stop", "lit": "yes", "name": "Det Biovidenskabelige Fakultet", "network": "Movia", "network:wikidata": "Q3359392", "public_transport": "platform", "shelter": "yes", "tactile_paving": "no"}}, {"type": "node", "id": 1309139717, "lat": 55.6961523, "lon": 12.507029, "tags": {"bench": "yes", "bin": "yes", "bus": "yes", "highway": "bus_stop", "lit": "yes", "name": "R\u00f8dkildevej", "network": "Movia", "network:wikidata": "Q3359392", "network:wikipedia": "da:Movia", "public_transport": "platform", "shelter": "yes", "tactile_paving": "yes"}}, {"type": "node", "id": 1309139718, "lat": 55.679712, "lon": 12.563182, "tags": {"bench": "yes", "bin": "yes", "bus": "yes", "highway": "bus_stop", "lit": "yes", "name": "Vester Farimagsgade", "network": "Movia", "network:wikidata": "Q3359392", "public_transport": "platform", "shelter": "yes", "tactile_paving": "no", "wheelchair": "yes"}}, {"type": "node", "id": 1309139719, "lat": 55.6763226, "lon": 12.5825882, "tags": {"bench": "yes", "bin": "yes", "bus": "yes", "highway": "bus_stop", "lit": "yes", "name": "B\u00f8rsen", "network": "Movia", "network:wikidata": "Q3359392", "public_transport": "platform", "shelter": "yes", "tactile_paving": "yes"}}, {"type": "node", "id": 1309139721, "lat": 55.6954384, "lon": 12.5086445, "tags": {"bench": "no", "bin": "yes", "bus": "yes", "highway": "bus_stop", "lit": "yes", "name": "R\u00f8dkildevej", "network": "Movia", "network:wikidata": "Q3359392", "network:wikipedia": "da:Movia", "public_transport": "platform", "shelter": "no", "tactile_paving": "yes"}}, {"type": "node", "id": 1309139722, "lat": 55.6910704, "lon": 12.5157496, "tags": {"bench": "yes", "bin": "yes", "bus": "yes", "highway": "bus_stop", "name": "Gr\u00f8ndal St.", "network": "Movia", "network:wikidata": "Q3359392", "network:wikipedia": "da:Movia", "public_transport": "platform", "shelter": "yes"}}, {"type": "node", "id": 1309139724, "lat": 55.6827264, "lon": 12.5495588, "tags": {"bench": "yes", "bin": "yes", "bus": "yes", "highway": "bus_stop", "lit": "yes", "name": "H.C. \u00d8rsteds Vej", "network": "Movia", "network:wikidata": "Q3359392", "public_transport": "platform", "shelter": "yes", "tactile_paving": "yes"}}, {"type": "node", "id": 1309139725, "lat": 55.6906518, "lon": 12.5162402, "tags": {"bus": "yes", "highway": "bus_stop", "name": "Gr\u00f8ndal St.", "network": "Movia", "network:wikidata": "Q3359392", "network:wikipedia": "da:Movia", "public_transport": "stop_position"}}, {"type": "node", "id": 1309144505, "lat": 55.6682837, "lon": 12.5965438, "tags": {"bench": "yes", "bin": "yes", "highway": "bus_stop", "lit": "yes", "name": "Christmas M\u00f8llers Plads", "public_transport": "platform", "shelter": "yes", "tactile_paving": "yes"}}, {"type": "node", "id": 1309144509, "lat": 55.6690497, "lon": 12.5964242, "tags": {"bench": "yes", "bin": "yes", "highway": "bus_stop", "lit": "no", "name": "Christmas M\u00f8llers Plads", "public_transport": "platform", "shelter": "no", "tactile_paving": "yes"}}, {"type": "node", "id": 1309144510, "lat": 55.6688148, "lon": 12.5973528, "tags": {"bench": "no", "bin": "yes", "covered": "no", "highway": "bus_stop", "name": "Christmas M\u00f8llers Plads", "public_transport": "platform", "shelter": "no", "tactile_paving": "no"}}, {"type": "node", "id": 1310602128, "lat": 55.6441417, "lon": 12.6284971, "tags": {"highway": "bus_stop", "name": "Postparken", "public_transport": "platform"}}, {"type": "node", "id": 1310602129, "lat": 55.6604252, "lon": 12.6141794, "tags": {"bench": "no", "bin": "yes", "highway": "bus_stop", "name": "Kastrupvej", "public_transport": "platform", "shelter": "no"}}, {"type": "node", "id": 1310602130, "lat": 55.6658451, "lon": 12.5979923, "tags": {"bench": "yes", "bin": "yes", "bus": "yes", "highway": "bus_stop", "lit": "yes", "name": "S\u00f8nderport", "network": "Movia", "network:wikidata": "Q3359392", "network:wikipedia": "da:Movia", "public_transport": "platform", "shelter": "yes", "tactile_paving": "yes"}}, {"type": "node", "id": 1310602133, "lat": 55.6642288, "lon": 12.6023563, "tags": {"bench": "no", "bin": "yes", "bus": "yes", "highway": "bus_stop", "lit": "yes", "name": "Amagerbro St.", "public_transport": "platform", "shelter": "no", "tactile_paving": "yes"}}, {"type": "node", "id": 1310602134, "lat": 55.6620933, "lon": 12.6160662, "tags": {"bench": "yes", "bin": "yes", "highway": "bus_stop", "name": "Lergravsparken st.", "public_transport": "platform", "shelter": "yes", "tactile_paving": "yes"}}, {"type": "node", "id": 1310602135, "lat": 55.6655635, "lon": 12.6084215, "tags": {"bus": "yes", "highway": "bus_stop", "name": "Lyneborggade", "public_transport": "platform", "shelter": "yes"}}, {"type": "node", "id": 1310602136, "lat": 55.6612427, "lon": 12.6169947, "tags": {"bench": "yes", "bus": "yes", "highway": "bus_stop", "name": "Lergravsparken St.", "network": "Movia", "network:wikidata": "Q3359392", "public_transport": "platform", "shelter": "yes", "tactile_paving": "yes"}}, {"type": "node", "id": 1310602138, "lat": 55.6574989, "lon": 12.6161482, "tags": {"highway": "bus_stop", "name": "Sundby Kirkeg\u00e5rd", "public_transport": "platform"}}, {"type": "node", "id": 1310602140, "lat": 55.6445163, "lon": 12.6279858, "tags": {"bench": "no", "bin": "no", "bus": "yes", "highway": "bus_stop", "name": "Postparken", "network": "Movia", "network:wikidata": "Q3359392", "public_transport": "platform", "shelter": "no"}}, {"type": "node", "id": 1310602141, "lat": 55.6607822, "lon": 12.6159416, "tags": {"bench": "no", "bin": "yes", "bus": "yes", "highway": "bus_stop", "lit": "no", "name": "Kastrupvej", "network": "Movia", "network:wikidata": "Q3359392", "public_transport": "platform", "shelter": "no", "tactile_paving": "no"}}, {"type": "node", "id": 1310602142, "lat": 55.6466421, "lon": 12.6242912, "tags": {"highway": "bus_stop", "name": "Wibrandtsvej", "public_transport": "platform"}}, {"type": "node", "id": 1310602143, "lat": 55.6656584, "lon": 12.6096154, "tags": {"bench": "no", "bin": "yes", "highway": "bus_stop", "lit": "yes", "name": "Lyneborggade", "public_transport": "platform", "shelter": "no", "tactile_paving": "no"}}, {"type": "node", "id": 1310602144, "lat": 55.6639285, "lon": 12.6146329, "tags": {"bench": "yes", "bus": "yes", "highway": "bus_stop", "lit": "yes", "name": "Bulgariensgade", "public_transport": "platform", "shelter": "yes", "tactile_paving": "yes"}}, {"type": "node", "id": 1310602145, "lat": 55.6662053, "lon": 12.6128063, "tags": {"bench": "no", "bin": "yes", "highway": "bus_stop", "lit": "yes", "name": "Holmbladsgade", "public_transport": "platform", "shelter": "no", "tactile_paving": "no"}}, {"type": "node", "id": 1310602147, "lat": 55.6621931, "lon": 12.6162419, "tags": {"bench": "yes", "bin": "yes", "bus": "yes", "highway": "bus_stop", "name": "Lergravsparken st.", "public_transport": "platform", "shelter": "yes", "tactile_paving": "yes"}}, {"type": "node", "id": 1310602148, "lat": 55.6468642, "lon": 12.6247563, "tags": {"bench": "no", "bin": "yes", "highway": "bus_stop", "lit": "yes", "name": "Kastrupvej", "public_transport": "platform", "shelter": "no", "tactile_paving": "no"}}, {"type": "node", "id": 1310602149, "lat": 55.6574989, "lon": 12.6160355, "tags": {"highway": "bus_stop", "name": "Sundby Kirkeg\u00e5rd", "public_transport": "platform"}}, {"type": "node", "id": 1310602151, "lat": 55.6638346, "lon": 12.6146516, "tags": {"bench": "yes", "bus": "yes", "highway": "bus_stop", "lit": "yes", "name": "Bulgariensgade", "public_transport": "platform", "shelter": "yes", "tactile_paving": "no"}}, {"type": "node", "id": 1310602152, "lat": 55.6644707, "lon": 12.6005434, "tags": {"bench": "no", "bin": "yes", "highway": "bus_stop", "lit": "no", "name": "Amagerbro St.", "shelter": "no", "tactile_paving": "yes"}}, {"type": "node", "id": 1310602153, "lat": 55.6662173, "lon": 12.6128572, "tags": {"bench": "no", "bin": "yes", "highway": "bus_stop", "lit": "yes", "name": "Holmbladsgade", "public_transport": "platform", "shelter": "no", "tactile_paving": "no"}}, {"type": "node", "id": 1310602154, "lat": 55.6626932, "lon": 12.6021551, "tags": {"bench": "yes", "bin": "yes", "bus": "yes", "highway": "bus_stop", "lit": "yes", "name": "Amagerbro St.", "network": "Movia", "network:wikidata": "Q3359392", "network:wikipedia": "da:Movia", "public_transport": "platform", "shelter": "yes", "tactile_paving": "yes"}}, {"type": "node", "id": 1310602155, "lat": 55.6661289, "lon": 12.598978, "tags": {"bench": "yes", "bin": "yes", "bus": "yes", "highway": "bus_stop", "lit": "yes", "name": "S\u00f8nderport", "public_transport": "platform", "shelter": "yes", "tactile_paving": "yes"}}, {"type": "node", "id": 1311773181, "lat": 55.6678527, "lon": 12.5871226, "tags": {"bench": "yes", "bin": "no", "bus": "yes", "highway": "bus_stop", "lit": "yes", "name": "\u00d8restads Boulevard", "network": "Movia", "network:wikidata": "Q3359392", "network:wikipedia": "da:Movia", "public_transport": "platform", "shelter": "yes", "tactile_paving": "yes"}}, {"type": "node", "id": 1311773185, "lat": 55.6350008, "lon": 12.6197355, "tags": {"bench": "yes", "bin": "yes", "bus": "yes", "highway": "bus_stop", "name": "Korsvejens Skole", "network": "Movia", "network:wikidata": "Q3359392", "network:wikipedia": "da:Movia", "public_transport": "platform", "shelter": "yes"}}, {"type": "node", "id": 1311773187, "lat": 55.6606288, "lon": 12.6049553, "tags": {"bench": "yes", "bin": "yes", "bus": "yes", "highway": "bus_stop", "lit": "no", "name": "Tingvej", "network": "Movia", "network:wikidata": "Q3359392", "network:wikipedia": "da:Movia", "public_transport": "platform", "shelter": "yes", "tactile_paving": "no"}}, {"type": "node", "id": 1311773192, "lat": 55.635894, "lon": 12.6195455, "tags": {"bench": "yes", "bin": "yes", "bus": "yes", "highway": "bus_stop", "lit": "yes", "name": "Korsvejens Skole", "network": "Movia", "network:wikidata": "Q3359392", "network:wikipedia": "da:Movia", "public_transport": "platform", "shelter": "yes", "tactile_paving": "no"}}, {"type": "node", "id": 1311773193, "lat": 55.6663128, "lon": 12.5956976, "tags": {"bus": "yes", "highway": "bus_stop", "name": "Amagerf\u00e6lledvej", "network": "Movia", "network:wikidata": "Q3359392", "network:wikipedia": "da:Movia", "public_transport": "stop_position"}}, {"type": "node", "id": 1311773194, "lat": 55.6675397, "lon": 12.5884963, "tags": {"bench": "no", "bin": "yes", "bus": "yes", "highway": "bus_stop", "lit": "yes", "name": "\u00d8restads Boulevard", "network": "Movia", "network:wikidata": "Q3359392", "network:wikipedia": "da:Movia", "public_transport": "platform", "shelter": "no", "tactile_paving": "no"}}, {"type": "node", "id": 1311773195, "lat": 55.635341, "lon": 12.6186493, "tags": {"bench": "yes", "bin": "yes", "bus": "yes", "check_date:bin": "2021-07-06", "highway": "bus_stop", "lit": "yes", "name": "Korsvejens Skole", "network": "Movia", "network:wikidata": "Q3359392", "network:wikipedia": "da:Movia", "public_transport": "platform", "shelter": "yes", "tactile_paving": "no"}}, {"type": "node", "id": 1311773196, "lat": 55.6708801, "lon": 12.57382, "tags": {"bench": "no", "bin": "yes", "bus": "yes", "highway": "bus_stop", "lit": "yes", "name": "Otto M\u00f8nsteds Plads", "network": "Movia", "network:wikidata": "Q3359392", "network:wikipedia": "da:Movia", "public_transport": "platform", "shelter": "yes", "tactile_paving": "no"}}, {"type": "node", "id": 1311773197, "lat": 55.6507156, "lon": 12.6122495, "tags": {"bench": "no", "bin": "yes", "bus": "yes", "highway": "bus_stop", "lit": "no", "name": "Smyrnavej", "network": "Movia", "network:wikidata": "Q3359392", "public_transport": "platform", "shelter": "no", "tactile_paving": "no"}}, {"type": "node", "id": 1311773199, "lat": 55.6376928, "lon": 12.6184512, "tags": {"bench": "yes", "bin": "yes", "bus": "yes", "highway": "bus_stop", "lit": "yes", "name": "Randkl\u00f8ve All\u00e9", "network": "Movia", "network:wikidata": "Q3359392", "network:wikipedia": "da:Movia", "public_transport": "platform", "shelter": "yes", "tactile_paving": "no"}}, {"type": "node", "id": 1311773202, "lat": 55.6442663, "lon": 12.6154237, "tags": {"bench": "yes", "bin": "yes", "bus": "yes", "highway": "bus_stop", "lit": "yes", "name": "Vejlands All\u00e9", "network": "Movia", "network:wikidata": "Q3359392", "public_transport": "platform", "shelter": "yes", "tactile_paving": "yes"}}, {"type": "node", "id": 1311773203, "lat": 55.6664314, "lon": 12.5955364, "tags": {"bus": "yes", "highway": "bus_stop", "name": "Amagerf\u00e6lledvej", "network": "Movia", "network:wikidata": "Q3359392", "network:wikipedia": "da:Movia", "public_transport": "stop_position"}}, {"type": "node", "id": 1311773204, "lat": 55.6463508, "lon": 12.6136618, "tags": {"bench": "yes", "bin": "yes", "bus": "yes", "highway": "bus_stop", "lit": "yes", "name": "Sundbyvester Plads", "public_transport": "platform", "shelter": "yes", "tactile_paving": "yes"}}, {"type": "node", "id": 1311773206, "lat": 55.6550265, "lon": 12.6101171, "tags": {"bench": "yes", "bin": "yes", "bus": "yes", "highway": "bus_stop", "name": "Tycho Brahes All\u00e9", "network": "Movia", "network:wikidata": "Q3359392", "public_transport": "platform", "shelter": "yes"}}, {"type": "node", "id": 1311773207, "lat": 55.6457269, "lon": 12.6144528, "tags": {"bench": "no", "bin": "yes", "bus": "yes", "highway": "bus_stop", "lit": "no", "name": "Sundbyvester Plads", "network": "Movia", "network:wikidata": "Q3359392", "public_transport": "platform", "shelter": "no", "tactile_paving": "no"}}, {"type": "node", "id": 1326356719, "lat": 55.6739566, "lon": 12.5717882, "tags": {"bench": "no", "bin": "yes", "bus": "yes", "highway": "bus_stop", "lit": "yes", "name": "Stormgade", "network": "Movia", "network:wikidata": "Q3359392", "network:wikipedia": "da:Movia", "public_transport": "platform", "shelter": "no", "tactile_paving": "no"}}, {"type": "node", "id": 1411248754, "lat": 55.6514457, "lon": 12.6121566, "tags": {"bench": "yes", "bin": "yes", "bus": "yes", "highway": "bus_stop", "lit": "yes", "name": "Smyrnavej", "network": "Movia", "network:wikidata": "Q3359392", "public_transport": "platform", "shelter": "yes", "tactile_paving": "no"}}, {"type": "node", "id": 1462199246, "lat": 55.6860016, "lon": 12.5697864, "tags": {"bench": "no", "bin": "yes", "bus": "yes", "highway": "bus_stop", "lit": "yes", "name": "Gothersgade", "network": "Movia", "network:wikidata": "Q3359392", "public_transport": "platform", "shelter": "no", "tactile_paving": "no"}}, {"type": "node", "id": 1473045016, "lat": 55.6996332, "lon": 12.5538421, "tags": {"bench": "yes", "bus": "yes", "highway": "bus_stop", "name": "Jagtvej", "network": "Movia", "network:wikidata": "Q3359392", "public_transport": "platform", "shelter": "yes"}}, {"type": "node", "id": 1487075375, "lat": 55.6887909, "lon": 12.5734287, "tags": {"bench": "no", "bin": "yes", "bus": "yes", "highway": "bus_stop", "lit": "no", "name": "S\u00f8lvtorvet", "network": "Movia", "network:wikidata": "Q3359392", "public_transport": "platform", "shelter": "no", "tactile_paving": "no"}}, {"type": "node", "id": 1487084630, "lat": 55.687397, "lon": 12.5713372, "tags": {"bench": "yes", "bin": "yes", "bus": "yes", "check_date:shelter": "2024-05-15", "highway": "bus_stop", "lit": "yes", "name": "Kommunehospitalet", "network": "Movia", "network:wikidata": "Q3359392", "public_transport": "platform", "shelter": "yes", "tactile_paving": "no"}}, {"type": "node", "id": 1487085090, "lat": 55.6872024, "lon": 12.5715159, "tags": {"bench": "yes", "bin": "yes", "bus": "yes", "check_date:shelter": "2022-11-13", "highway": "bus_stop", "lit": "yes", "name": "Kommunehospitalet", "network": "Movia", "network:wikidata": "Q3359392", "public_transport": "platform", "shelter": "yes", "tactile_paving": "no"}}, {"type": "node", "id": 1574104646, "lat": 55.6462063, "lon": 12.6129043, "tags": {"bench": "yes", "bin": "yes", "bus": "yes", "highway": "bus_stop", "lit": "yes", "name": "Sundbyvester Plads", "network": "Movia", "network:wikidata": "Q3359392", "public_transport": "platform", "shelter": "yes", "tactile_paving": "yes"}}, {"type": "node", "id": 1574104900, "lat": 55.6461415, "lon": 12.613314, "tags": {"bench": "no", "bin": "yes", "bus": "yes", "highway": "bus_stop", "lit": "yes", "name": "Sundbyvester Plads", "network": "Movia", "network:wikidata": "Q3359392", "public_transport": "platform", "shelter": "no", "tactile_paving": "no"}}, {"type": "node", "id": 1574123063, "lat": 55.6459107, "lon": 12.6146594, "tags": {"bench": "no", "bin": "no", "bus": "yes", "highway": "bus_stop", "lit": "no", "name": "Sundbyvester Plads", "network": "Movia", "network:wikidata": "Q3359392", "public_transport": "platform", "shelter": "no", "tactile_paving": "yes"}}, {"type": "node", "id": 1578827056, "lat": 55.6721012, "lon": 12.5175677, "tags": {"bench": "yes", "bin": "yes", "bus": "yes", "highway": "bus_stop", "lit": "no", "name": "S\u00f8ndre Fasanvej", "network": "Movia", "network:wikidata": "Q3359392", "public_transport": "platform", "shelter": "yes", "tactile_paving": "no"}}, {"type": "node", "id": 1578827064, "lat": 55.6718606, "lon": 12.5188137, "tags": {"bench": "yes", "bin": "yes", "bus": "yes", "highway": "bus_stop", "lit": "yes", "name": "S\u00f8ndre Fasanvej", "network": "Movia", "network:wikidata": "Q3359392", "public_transport": "platform", "shelter": "yes", "tactile_paving": "no"}}, {"type": "node", "id": 1578870281, "lat": 55.6681958, "lon": 12.5171053, "tags": {"bench": "no", "bin": "no", "bus": "yes", "highway": "bus_stop", "lit": "yes", "name": "Aurikelvej", "network": "Movia", "network:wikidata": "Q3359392", "public_transport": "platform", "shelter": "no", "tactile_paving": "no"}}, {"type": "node", "id": 1578870284, "lat": 55.6713876, "lon": 12.5235364, "tags": {"bench": "yes", "bin": "yes", "bus": "yes", "highway": "bus_stop", "lit": "yes", "name": "Zoologisk Have (Roskildevej)", "network": "Movia", "network:wikidata": "Q3359392", "public_transport": "platform", "shelter": "yes", "tactile_paving": "no"}}, {"type": "node", "id": 1578870285, "lat": 55.6723435, "lon": 12.505879, "tags": {"bench": "yes", "bin": "yes", "bus": "yes", "highway": "bus_stop", "lit": "yes", "name": "Dalgas Boulevard", "network": "Movia", "network:wikidata": "Q3359392", "public_transport": "platform", "shelter": "yes", "tactile_paving": "no"}}, {"type": "node", "id": 1578870286, "lat": 55.6722605, "lon": 12.510016, "tags": {"bench": "yes", "bin": "yes", "bus": "yes", "highway": "bus_stop", "lit": "no", "name": "Solbjerg Kirkeg\u00e5rd", "network": "Movia", "network:wikidata": "Q3359392", "public_transport": "platform", "shelter": "yes", "tactile_paving": "no"}}, {"type": "node", "id": 1578870287, "lat": 55.6716053, "lon": 12.5227406, "tags": {"bench": "yes", "bin": "yes", "bus": "yes", "highway": "bus_stop", "lit": "yes", "name": "Zoologisk Have (Roskildevej)", "network": "Movia", "network:wikidata": "Q3359392", "public_transport": "platform", "shelter": "yes", "tactile_paving": "yes"}}, {"type": "node", "id": 1578870288, "lat": 55.6720934, "lon": 12.5098402, "tags": {"bench": "yes", "bin": "yes", "bus": "yes", "highway": "bus_stop", "lit": "no", "name": "Solbjerg Kirkeg\u00e5rd (Roskildevej)", "network": "Movia", "network:wikidata": "Q3359392", "public_transport": "platform", "shelter": "yes", "tactile_paving": "no"}}, {"type": "node", "id": 1578870290, "lat": 55.6721236, "lon": 12.5072262, "tags": {"bench": "yes", "bin": "yes", "bus": "yes", "highway": "bus_stop", "lit": "yes", "name": "Dalgas Boulevard (Roskildevej)", "network": "Movia", "network:wikidata": "Q3359392", "public_transport": "platform", "shelter": "yes", "tactile_paving": "no"}}, {"type": "node", "id": 1604997141, "lat": 55.7147931, "lon": 12.5784254, "tags": {"bench": "no", "bin": "no", "bus": "yes", "highway": "bus_stop", "lit": "yes", "name": "4A", "public_transport": "platform", "shelter": "yes", "tactile_paving": "no"}}, {"type": "node", "id": 1619530737, "lat": 55.6179567, "lon": 12.578013, "tags": {"bench": "yes", "bin": "no", "bus": "yes", "highway": "bus_stop", "name": "Foldbyvej", "network": "Movia", "network:wikidata": "Q3359392", "public_transport": "platform", "shelter": "yes"}}, {"type": "node", "id": 1630111897, "lat": 55.6780208, "lon": 12.5879994, "tags": {"bench": "no", "bin": "yes", "bus": "yes", "highway": "bus_stop", "lit": "yes", "name": "Tordenskjoldsgade", "public_transport": "platform", "shelter": "no", "tactile_paving": "no"}}, {"type": "node", "id": 1630113193, "lat": 55.6779629, "lon": 12.5881632, "tags": {"bench": "no", "bin": "yes", "bus": "yes", "highway": "bus_stop", "lit": "yes", "name": "Tordenskjoldsgade", "public_transport": "platform", "shelter": "no", "tactile_paving": "no"}}, {"type": "node", "id": 1716428875, "lat": 55.6729093, "lon": 12.5806269, "tags": {"bench": "yes", "bin": "yes", "bus": "yes", "highway": "bus_stop", "lit": "yes", "name": "Det Kongelige Bibliotek", "public_transport": "platform", "shelter": "yes", "tactile_paving": "no", "wheelchair": "yes"}}, {"type": "node", "id": 1716428919, "lat": 55.6728801, "lon": 12.580901, "tags": {"bench": "yes", "bin": "no", "bus": "yes", "highway": "bus_stop", "lit": "yes", "name": "Det Kongelige Bibliotek", "public_transport": "platform", "shelter": "yes", "tactile_paving": "no"}}, {"type": "node", "id": 1727415026, "lat": 55.6857711, "lon": 12.5660242, "tags": {"bench": "yes", "bin": "yes", "bus": "yes", "highway": "bus_stop", "lit": "yes", "name": "S\u00f8torvet", "network": "Movia", "network:wikidata": "Q3359392", "public_transport": "platform", "shelter": "yes", "tactile_paving": "no"}}, {"type": "node", "id": 1729297539, "lat": 55.7168055, "lon": 12.5127555, "tags": {"highway": "bus_stop", "name": "Mosesvinget", "public_transport": "platform"}}, {"type": "node", "id": 1729534527, "lat": 55.7197983, "lon": 12.6074679, "tags": {"bench": "no", "bin": "no", "bus": "yes", "highway": "bus_stop", "lit": "no", "name": "Nords\u00f8vej", "network": "Movia", "network:wikidata": "Q3359392", "public_transport": "platform", "shelter": "no", "tactile_paving": "no"}}, {"type": "node", "id": 1729534573, "lat": 55.7199142, "lon": 12.6077318, "tags": {"bench": "no", "bin": "no", "bus": "yes", "highway": "bus_stop", "lit": "no", "name": "Nords\u00f8vej", "network": "Movia", "network:wikidata": "Q3359392", "public_transport": "platform", "shelter": "no", "tactile_paving": "no"}}, {"type": "node", "id": 1729534630, "lat": 55.7220361, "lon": 12.6089082, "tags": {"bus": "yes", "highway": "bus_stop", "name": "F\u00e6rgehavn Nord", "network": "Movia", "network:wikidata": "Q3359392", "public_transport": "platform"}}, {"type": "node", "id": 1742780331, "lat": 55.7076226, "lon": 12.4854033, "tags": {"highway": "bus_stop", "public_transport": "platform"}}, {"type": "node", "id": 1742796459, "lat": 55.7120846, "lon": 12.4719313, "tags": {"bench": "no", "bin": "yes", "bus": "yes", "highway": "bus_stop", "name": "Husum Torv", "network": "Movia", "network:wikidata": "Q3359392", "public_transport": "platform", "shelter": "no"}}, {"type": "node", "id": 1742796468, "lat": 55.7119083, "lon": 12.4714024, "tags": {"highway": "bus_stop", "name": "Husum Torv", "public_transport": "platform"}}, {"type": "node", "id": 1742796493, "lat": 55.7118712, "lon": 12.4719844, "tags": {"bench": "yes", "bus": "yes", "highway": "bus_stop", "name": "Husum Torv", "network": "Movia", "network:wikidata": "Q3359392", "public_transport": "platform", "shelter": "yes"}}, {"type": "node", "id": 1742901866, "lat": 55.6461132, "lon": 12.5241365, "tags": {"bench": "yes", "bin": "yes", "bus": "yes", "highway": "bus_stop", "lit": "yes", "name": "Kgs. Enghave, Valbyparken", "network": "Movia", "network:wikidata": "Q3359392", "public_transport": "platform", "shelter": "yes", "tactile_paving": "yes"}}, {"type": "node", "id": 1778944949, "lat": 55.720128, "lon": 12.5315954, "tags": {"bench": "yes", "bin": "yes", "bus": "yes", "highway": "bus_stop", "lit": "yes", "name": "Bispebjerg Parkall\u00e9", "network": "Movia", "network:wikidata": "Q3359392", "public_transport": "platform", "shelter": "yes", "tactile_paving": "no"}}, {"type": "node", "id": 1785099181, "lat": 55.6724768, "lon": 12.5003404, "tags": {"bench": "yes", "bin": "yes", "bus": "yes", "highway": "bus_stop", "lit": "yes", "name": "Domus Vista", "network": "Movia", "network:wikidata": "Q3359392", "public_transport": "platform", "shelter": "yes", "tactile_paving": "yes"}}, {"type": "node", "id": 1785099188, "lat": 55.6723079, "lon": 12.4960305, "tags": {"bench": "yes", "bin": "yes", "bus": "yes", "highway": "bus_stop", "lit": "yes", "name": "Skellet", "network": "Movia", "network:wikidata": "Q3359392", "public_transport": "platform", "shelter": "yes", "tactile_paving": "no"}}, {"type": "node", "id": 1785099190, "lat": 55.6725364, "lon": 12.4947741, "tags": {"bench": "yes", "bin": "yes", "bus": "yes", "highway": "bus_stop", "lit": "yes", "name": "Skellet", "network": "Movia", "network:wikidata": "Q3359392", "public_transport": "platform", "shelter": "yes", "tactile_paving": "no"}}, {"type": "node", "id": 1785099191, "lat": 55.6721939, "lon": 12.5018424, "tags": {"bench": "yes", "bin": "yes", "bus": "yes", "highway": "bus_stop", "lit": "yes", "name": "Domus Vista", "network": "Movia", "network:wikidata": "Q3359392", "public_transport": "platform", "shelter": "yes", "tactile_paving": "no", "wheelchair": "yes"}}, {"type": "node", "id": 1785106045, "lat": 55.6725854, "lon": 12.4929745, "tags": {"bus": "yes", "highway": "bus_stop", "name": "\u00c5lholm station", "network": "Movia", "network:wikidata": "Q3359392", "public_transport": "platform"}}, {"type": "node", "id": 1837425261, "lat": 55.687568, "lon": 12.5468533, "tags": {"bench": "no", "bin": "yes", "highway": "bus_stop", "lit": "yes", "name": "Skyttegade", "public_transport": "platform", "shelter": "no", "tactile_paving": "no"}},